     2.11           OBSERVATION DATA    G (GPS)             RINEX VERSION / TYPE
clockShift          gpsops              20140913 001049 UTC PGM / RUN BY / DATE
teqc  2013Mar15     gpsops              20140913 00:10:48UTCCOMMENT
Linux 2.4.21-27.ELsmp|Opteron|gcc -static|Linux x86_64|=+   COMMENT
BIT 2 OF LLI FLAGS DATA COLLECTED UNDER A/S CONDITION       COMMENT
AMC2                                                        MARKER NAME
40472S004                                                   MARKER NUMBER
GGN                 USNO                                    OBSERVER / AGENCY
RT920013101         ASHTECH Z-XII3T     IL01-1D04-MCF-12MX  REC # / TYPE / VERS
KW-0201             AOAD/M_T        NONE                    ANT # / TYPE
 -1248596.2520 -4819428.2840  3976506.0340                  APPROX POSITION XYZ
        0.0000        0.0000        0.0000                  ANTENNA: DELTA H/E/N
     1     1                                                WAVELENGTH FACT L1/2
     7    L1    L2    P1    P2    C1    S1    S2            # / TYPES OF OBSERV
    30.0000                                                 INTERVAL
                                                            COMMENT
This data is provided as a public service by NASA/JPL.      COMMENT
No warranty is expressed or implied regarding suitability   COMMENT
for use.  For further information, contact:                 COMMENT
Dave Stowers, NASA/JPL m/s 238-600                          COMMENT
4800 Oak Grove Drive, Pasadena CA 91109 USA                 COMMENT
                                                            COMMENT
Forced Modulo Decimation to 30 seconds                      COMMENT
 SNR is mapped to RINEX snr flag value [0-9]                COMMENT
  L1 & L2: min(max(int(snr_dBHz/6), 0), 9)                  COMMENT
pseudorange smoothing corrections not applied               COMMENT
clockShift applied 466.79 L1, 478.44 L2 (ns)                COMMENT
  2014     9    12     0     0    0.0000000     GPS         TIME OF FIRST OBS
                                                            END OF HEADER
 14  9 12  0  0  0.0000000  0  7G18G15G16G26G05G21G29
 -15357187.51547 -11706219.99746  22074424.4314   22074424.9374   22074424.665
        43.6004         40.9004
 -21213876.42547 -16272059.25247  21267067.1294   21267067.7754   21267066.856
        46.3004         43.5004
  -2398634.68846  -1859386.94845  24511774.5314   24511778.3264   24511775.471
        36.1004         34.1004
 -17859610.15547 -13898621.17346  21522611.4394   21522612.3404   21522611.296
        44.2004         41.2004
  -5731928.02646  -4454370.28746  23759042.3794   23759044.9174   23759042.854
        39.7004         37.3004
 -14879982.67047 -11579989.79446  22148470.9884   22148471.6404   22148471.710
        44.4004         41.6004
 -25001095.18248 -19061409.50147  20378160.2374   20378160.6574   20378160.078
        49.3004         46.1004
 14  9 12  0  0 30.0000000  0  7G18G15G16G26G05G21G29
 -15418816.00047 -11754242.13146  22062697.5344   22062697.5064   22062697.184
        43.6004         40.7004
 -21265876.78247 -16312578.96047  21257171.9344   21257172.6624   21257171.865
        46.5004         43.7004
  -2424165.76246  -1879281.27345  24506917.0494   24506920.3874   24506916.753
        36.1004         34.3004
 -17858698.57447 -13897910.82446  21522784.9244   21522786.0564   21522784.966
        44.2004         41.6004
  -5635544.11446  -4379265.99046  23777384.8074   23777385.7584   23777384.312
        39.9004         37.4004
 -14934678.57647 -11622609.97446  22138063.1254   22138063.4474   22138063.446
        44.6004         41.8004
 -24959124.80048 -19028705.32947  20386146.8004   20386147.6184   20386146.717
        49.1004         46.1004
 14  9 12  0  1  0.0000000  0  7G18G15G16G26G05G21G29
 -15480169.88647 -11802050.30946  22051021.4404   22051021.7984   22051021.934
        43.7004         40.9004
 -21317348.94647 -16352687.09247  21247376.8044   21247377.9214   21247376.738
        46.5004         43.7004
  -2449153.43246  -1898752.16545  24502160.8504   24502160.1734   24502161.446
        36.1004         34.3004
 -17857082.63947 -13896651.65446  21523091.8034   21523094.0914   21523092.391
        44.2004         41.2004
  -5539106.49046  -4304119.84746  23795735.9524   23795737.7024   23795735.403
        39.9004         37.4004
 -14989286.32847 -11665161.44746  22127671.4514   22127671.6914   22127672.174
        44.6004         41.8004
 -24916629.78048 -18995592.34047  20394233.5834   20394233.9724   20394233.181
        49.1004         46.1004
 14  9 12  0  1 30.0000000  0  7G18G15G16G26G05G21G29
 -15541249.46047 -11849644.73646  22039397.3064   22039399.6034   22039398.745
        43.7004         40.9004
 -21368290.89247 -16392382.06647  21237682.6274   21237683.8134   21237682.244
        46.5004         43.7004
  -2473596.90945  -1917799.02045  24497509.2904   24497511.7524   24497509.816
        35.7004         34.0004
 -17854762.19947 -13894843.51546  21523533.2724   21523535.3384   21523533.559
        44.1004         41.2004
  -5442617.15046  -4228933.40046  23814096.8834   23814098.6664   23814096.672
        40.1004         37.4004
 -15043805.07747 -11707643.57246  22117297.5274   22117297.0564   22117297.526
        44.6004         41.9004
 -24873611.02648 -18962071.25847  20402419.7054   20402420.0774   20402419.763
        49.1004         46.1004
 14  9 12  0  2  0.0000000  0  7G18G15G16G26G05G21G29
 -15602053.82047 -11897024.70746  22027827.8804   22027828.1054   22027827.984
        43.6004         40.7004
 -21418700.47647 -16431662.21247  21228090.4244   21228091.4584   21228089.803
        46.7004         43.7004
  -2497495.78245  -1936421.48545  24492961.3534   24492964.7034   24492962.167
        35.9004         34.0004
 -17851736.84947 -13892486.09046  21524109.2944   21524111.6004   21524109.442
        44.1004         41.1004
  -5346078.50946  -4153708.53046  23832467.8714   23832469.8424   23832467.731
        39.9004         37.3004
 -15098233.76347 -11750055.51746  22106939.3654   22106940.2984   22106940.138
        44.8004         41.9004
 -24830069.18648 -18928142.57447  20410705.4554   20410705.7564   20410705.399
        48.9004         45.9004
 14  9 12  0  2 30.0000000  0  7G18G15G16G26G05G21G29
 -15662582.76047 -11944190.06746  22016309.1394   22016309.7514   22016309.554
        43.6004         40.6004
 -21468575.68747 -16470525.96647  21218599.5634   21218600.2524   21218599.188
        46.7004         43.7004
  -2520849.76945  -1954619.40145  24488516.5934   24488521.6064   24488518.688
        35.7004         34.0004
 -17848006.45847 -13889579.28046  21524819.1094   21524820.7394   21524819.195
        44.1004         41.1004
  -5249491.60246  -4078446.07146  23850847.0614   23850850.2144   23850847.522
        39.9004         37.4004
 -15152572.02147 -11792397.01146  22096599.4124   22096599.2404   22096599.670
        44.8004         41.8004
 -24786005.17348 -18893807.00347  20419090.5094   20419090.8384   20419090.365
        48.9004         45.8004
 14  9 12  0  3  0.0000000  0  8G18G15G16G26G22G05G21G29
 -15722836.37747 -11991140.89146  22004842.5344   22004844.7274   22004843.555
        43.6004         40.7004
 -21517914.85247 -16508972.02047  21209210.1734   21209211.1144   21209210.071
        46.7004         43.9004
  -2543658.04645  -1972392.06545  24484178.9944   24484181.2754   24484177.872
        35.9004         34.3004
 -17843570.81147 -13886122.92046  21525663.1944   21525664.5764   21525663.214
        43.9004         41.1004
    -19923.54444     -5986.49643      -139.940        -143.433    25183993.661
        26.4004         23.4004
  -5152857.86146  -4003147.09646  23869236.5584   23869238.7154   23869236.475
        39.7004         37.3004
 -15206818.87247 -11834667.25146  22086276.7584   22086276.3324   22086276.950
        44.8004         41.8004
 -24741419.70948 -18859065.11147  20427574.8314   20427575.5744   20427574.751
        48.8004         45.8004
 14  9 12  0  3 30.0000000  0  8G18G15G16G26G22G05G21G29
 -15782814.16047 -12037876.78146  21993429.8734   21993430.4084   21993430.180
        43.6004         40.6004
 -21566715.91947 -16546998.77247  21199923.8544   21199924.7434   21199923.519
        46.9004         43.9004
  -2565920.31045  -1989739.26145  24479940.2214   24479944.6244   24479941.920
        35.9004         34.0004
 -17838429.82847 -13882116.93446  21526641.1814   21526643.9504   21526641.648
        44.1004         41.2004
   -111916.39144    -77669.18745      -139.940        -143.433    25166484.824
        26.4004         30.8004
  -5056178.92946  -3927812.93946  23887634.0084   23887635.6734   23887633.580
        39.6004         37.1004
 -15260974.03047 -11876866.05946  22075971.0504   22075971.1804   22075971.686
        44.8004         41.9004
 -24696313.71748 -18823917.61447  20436158.3754   20436158.9464   20436158.091
        48.8004         45.8004
 14  9 12  0  4  0.0000000  0  8G18G15G16G26G22G05G21G29
 -15842515.98147 -12084397.63646  21982068.8894   21982069.5424   21982069.468
        43.6004         40.9004
 -21614976.99047 -16584604.75447  21190740.0834   21190741.0094   21190739.829
        46.9004         44.0004
  -2587636.41645  -2006660.88345  24475808.9624   24475812.8404   24475809.008
        35.7004         34.1004
 -17832583.36447 -13877561.23146  21527753.9954   21527756.0854   21527754.181
        44.2004         41.4004
   -203803.54144   -149269.19745      -139.940        -143.433    25149000.699
        26.4004         34.0004
  -4959456.61246  -3852444.96746  23906040.2934   23906041.2634   23906039.413
        39.6004         37.1004
 -15315036.42147 -11918992.57746  22065683.1864   22065683.5504   22065683.917
        44.6004         41.8004
 -24650688.08048 -18788365.19747  20444840.4484   20444841.1324   20444840.574
        48.8004         45.8004
 14  9 12  0  4 30.0000000  0  8G18G15G16G26G22G05G21G29
 -15901941.57147 -12130703.25746  21970760.6304   21970760.9294   21970761.218
        43.7004         40.9004
 -21662695.79547 -16621788.18647  21181659.5224   21181660.1884   21181659.290
        46.9004         43.9004
  -2608805.96745  -2023156.65045  24471779.7924   24471784.2474   24471781.464
        35.6004         33.6004
 -17826031.34047 -13872455.74346  21529000.9074   21529003.5524   21529001.186
        44.2004         41.4004
   -295583.91245   -220786.04245      -139.940    25131539.9434   25131536.143
        34.5004         34.6004
  -4862692.40046  -3777044.34646  23924454.4514   23924455.5214   23924453.307
        39.6004         37.1004
 -15369005.40247 -11961046.30246  22055412.4134   22055413.4884   22055413.832
        44.6004         41.6004
 -24604543.64048 -18752408.51047  20453621.6374   20453622.1714   20453621.650
        48.8004         45.8004
 14  9 12  0  5  0.0000000  0  8G18G15G16G26G22G05G21G29
 -15961090.46547 -12176793.27146  21959505.3724   21959505.3414   21959505.562
        43.9004         41.2004
 -21709870.88647 -16658547.95247  21172682.5114   21172683.1894   21172682.014
        46.9004         43.9004
  -2629428.14945  -2039225.87045  24467857.6074   24467859.2534   24467856.914
        35.6004         34.0004
 -17818773.72147 -13866800.43646  21530382.0354   21530384.2354   21530382.315
        44.4004         41.6004
   -387257.12046   -292219.46645  25114088.8404   25114094.4744   25114090.261
        36.6004         35.0004
  -4765887.54346  -3701612.05146  23942874.4944   23942876.1744   23942874.501
        39.6004         37.3004
 -15422880.27247 -12003026.69946  22045161.4254   22045161.0094   22045161.518
        44.6004         41.6004
 -24557881.53248 -18716048.45647  20462501.3184   20462501.7984   20462501.061
        48.8004         45.6004
 14  9 12  0  5 30.0000000  0  8G18G15G16G26G22G05G21G29
 -16019962.98947 -12222667.92946  21948301.7364   21948302.9624   21948302.208
        43.9004         41.2004
 -21756500.01547 -16694882.29447  21163808.7914   21163809.3444   21163808.429
        46.9004         43.9004
  -2649502.90545  -2054868.51945  24464036.2434   24464038.8254   24464037.104
        35.6004         33.8004
 -17810810.51647 -13860595.33346  21531897.0254   21531899.3334   21531897.533
        44.4004         41.6004
   -478821.76046   -363568.28845  25096665.6444   25096669.0074   25096665.651
        37.3004         35.3004
  -4669044.07946  -3626149.67746  23961303.1184   23961305.2184   23961303.341
        39.7004         37.3004
 -15476660.13947 -12044933.06646  22034927.0574   22034927.1384   22034927.481
        44.6004         41.8004
 -24510702.32548 -18679285.46347  20471479.0044   20471479.4134   20471478.924
        48.6004         45.6004
 14  9 12  0  6  0.0000000  0  8G18G15G16G26G22G05G21G29
 -16078558.59847 -12268326.82146  21937151.6294   21937152.0004   21937151.648
        43.9004         41.1004
 -21802581.45047 -16730789.85747  21155039.7914   21155040.4314   21155039.519
        46.9004         43.9004
  -2669030.17045  -2070084.54145  24460320.8184   24460324.6044   24460321.784
        35.6004         33.8004
 -17802141.72047 -13853840.41846  21533546.4714   21533548.5764   21533547.191
        44.4004         41.4004
   -570277.03946   -434831.87745  25079260.6894   25079263.5604   25079261.919
        37.0004         35.0004
  -4572163.66746  -3550658.52446  23979739.2304   23979741.5204   23979738.776
        39.7004         37.3004
 -15530344.27847 -12086764.84246  22024711.0804   22024710.9914   22024711.698
        44.6004         41.6004
 -24463006.98248 -18642120.28347  20480555.4424   20480556.0274   20480554.987
        48.6004         45.6004
 14  9 12  0  6 30.0000000  0  8G18G15G16G26G22G05G21G29
 -16136877.17247 -12313769.82946  21926053.8774   21926054.1364   21926053.957
        43.9004         41.1004
 -21848113.54247 -16766269.36747  21146375.1764   21146375.8264   21146375.031
        46.7004         43.9004
  -2688009.44345  -2084873.57845  24456708.3934   24456708.5584   24456708.744
        35.4004         33.8004
 -17792767.49347 -13846535.81846  21535331.0744   21535333.2354   21535330.928
        44.2004         41.2004
   -661622.16846   -506009.67145  25061878.0654   25061883.0724   25061878.858
        37.0004         35.0004
  -4475247.65846  -3475139.63746  23998182.3474   23998184.3714   23998181.623
        39.6004         37.1004
 -15583931.97947 -12128521.47046  22014513.4964   22014514.3134   22014514.372
        44.6004         41.6004
 -24414796.52548 -18604553.71247  20489729.4844   20489729.8064   20489729.282
        48.6004         45.6004
 14  9 12  0  7  0.0000000  0  8G18G15G16G26G22G05G21G29
 -16194918.53147 -12358996.82446  21915008.5484   21915009.0204   21915009.281
        44.1004         41.4004
 -21893094.54247 -16801319.45647  21137815.6004   21137816.1094   21137815.448
        46.9004         43.9004
  -2706440.46245  -2099235.38945  24453199.6204   24453201.9654   24453200.138
        35.6004         33.6004
 -17782687.82347 -13838681.52646  21537249.6854   21537249.8064   21537248.988
        44.1004         41.1004
   -752856.38646   -577101.03445  25044516.2634   25044521.7694   25044517.334
        36.8004         34.6004
  -4378297.39946  -3399594.04646  24016630.8594   24016632.3494   24016630.921
        39.7004         37.4004
 -15637421.99847 -12170201.98246  22004335.1554   22004335.0994   22004335.688
        44.6004         41.6004
 -24366071.75248 -18566586.38347  20499001.4814   20499002.2054   20499001.306
        48.6004         45.4004
 14  9 12  0  7 30.0000000  0  8G18G15G16G26G22G05G21G29
 -16252682.45747 -12404007.63446  21904016.5824   21904017.4944   21904017.262
        44.1004         41.4004
 -21937522.45647 -16835938.57047  21129361.3344   21129361.6734   21129360.990
        46.9004         43.9004
  -2724323.03445  -2113169.84845  24449797.4194   24449801.1354   24449796.984
        35.2004         33.6004
 -17771902.89847 -13830277.67146  21539301.2944   21539303.1124   21539301.024
        43.9004         40.9004
   -843978.91546   -648105.39245  25027175.8474   25027180.9414   25027177.527
        36.3004         34.1004
  -4281314.54346  -3324023.05446  24035085.9084   24035087.4604   24035085.804
        39.7004         37.4004
 -15690813.79647 -12211805.96146  21994174.8354   21994175.0924   21994175.458
        44.4004         41.6004
 -24316834.12048 -18528219.42247  20508371.1574   20508371.6914   20508370.893
        48.4004         45.4004
 14  9 12  0  8  0.0000000  0  8G18G15G16G26G22G05G21G29
 -16310168.46047 -12448801.89646  21893077.3504   21893077.9854   21893078.091
        44.1004         41.1004
 -21981395.62447 -16870125.40547  21121012.4564   21121012.9324   21121012.176
        46.9004         43.9004
  -2741656.70945  -2126676.56445  24446498.0884   24446502.2874   24446498.945
        35.4004         33.6004
 -17760412.85947 -13821324.40046  21541487.5004   21541489.0934   21541487.501
        43.9004         41.1004
   -934988.86645   -719021.99845  25009856.6734   25009860.9554   25009858.290
        35.7004         33.4004
  -4184300.74446  -3248427.94846  24053547.3224   24053548.6594   24053547.310
        39.7004         37.3004
 -15744106.92747 -12253333.05846  21984033.2904   21984034.1884   21984034.120
        44.4004         41.6004
 -24267084.65248 -18489453.62547  20517838.0764   20517838.7174   20517837.907
        48.4004         45.4004
 14  9 12  0  8 30.0000000  0  8G18G15G16G26G22G05G21G29
 -16367376.82147 -12493379.82146  21882191.3884   21882191.5954   21882191.724
        44.1004         41.2004
 -22024712.23247 -16903878.55947  21112769.2404   21112770.6294   21112769.237
        46.9004         43.9004
  -2758441.48745  -2139755.57745  24443305.5474   24443308.2344   24443306.161
        35.6004         33.8004
 -17748217.99347 -13811821.90346  21543808.9024   21543809.9794   21543808.505
        43.9004         41.2004
  -1025885.50045   -789850.31545  24992559.7524   24992563.0034   24992562.081
        34.3004         32.6004
  -4087257.54046  -3172809.92146  24072014.1704   24072016.3444   24072013.508
        39.7004         37.3004
 -15797300.31747 -12294782.43046  21973910.4614   21973910.4854   21973911.460
        44.4004         41.6004
 -24216823.97948 -18450289.47247  20527402.2744   20527402.8294   20527402.238
        48.4004         45.4004
 14  9 12  0  9  0.0000000  0  8G18G15G16G26G22G05G21G29
 -16424307.37247 -12537741.25746  21871357.2764   21871357.5704   21871358.080
        44.2004         41.2004
 -22067470.63347 -16937196.75047  21104633.0954   21104633.5824   21104632.613
        46.7004         43.9004
  -2774677.42045  -2152406.93445  24440216.7314   24440218.4994   24440216.122
        35.6004         34.0004
 -17735318.39447 -13801770.24846  21546262.5924   21546264.3794   21546263.205
        44.1004         41.2004
  -1116668.26355   -860589.84355  24975280.1755   24975291.2325   24975284.787
        33.3004         32.4004
  -3990186.17946  -3097169.94546  24090486.0834   24090487.5594   24090485.956
        39.6004         37.1004
 -15850392.99547 -12336153.32346  21963808.4414   21963807.5534   21963808.290
        44.4004         41.6004
 -24166053.49148 -18410728.06647  20537063.5974   20537064.1494   20537063.552
        48.2004         45.2004
 14  9 12  0  9 30.0000000  0  8G18G15G16G26G22G05G21G29
 -16480959.91747 -12581886.05946  21860576.7794   21860577.4464   21860577.296
        44.2004         41.6004
 -22109669.12547 -16970078.64647  21096603.0334   21096603.3514   21096602.405
        46.7004         43.7004
  -2790364.27845  -2164630.44445  24437232.6284   24437233.0284   24437231.660
        35.7004         34.0004
 -17721714.41747 -13791169.73546  21548852.2574   21548853.8634   21548851.955
        44.2004         41.4004
  -1207335.48645   -931239.31345  24958028.6434   24958034.3034   24958033.493
        33.5004         32.9004
  -3893088.38746  -3021509.36646  24108963.2324   24108964.7404   24108963.025
        39.2004         36.9004
 -15903384.37347 -12377445.29546  21953723.5864   21953724.3544   21953724.296
        44.6004         41.8004
 -24114774.15548 -18370770.15547  20546821.9244   20546822.4434   20546821.632
        48.2004         45.2004
 14  9 12  0 10  0.0000000  0  8G18G15G16G26G22G05G21G29
 -16537334.13547 -12625813.99546  21849849.2394   21849850.2394   21849849.567
        44.4004         41.2004
 -22151306.15447 -17002523.04547  21088679.6404   21088680.1964   21088679.129
        46.9004         43.9004
  -2805501.89746  -2176425.98345  24434350.0434   24434352.6884   24434350.365
        36.1004         34.3004
 -17707406.30647 -13780020.54946  21551574.8124   21551576.4014   21551574.928
        44.4004         41.8004
  -1297887.04645  -1001798.70845  24940798.8254   24940805.3354   24940800.360
        34.9004         33.8004
  -3795965.61446  -2945829.33646  24127445.8344   24127445.3334   24127444.847
        39.2004         36.6004
 -15956273.46047 -12418657.54646  21943658.7274   21943660.1044   21943659.775
        44.6004         41.8004
 -24062987.02348 -18330416.57547  20556676.6154   20556677.0924   20556676.493
        48.2004         45.4004
 14  9 12  0 10 30.0000000  0  8G18G15G16G26G22G05G21G29
 -16593429.95147 -12669524.97846  21839174.1184   21839174.4534   21839174.875
        44.4004         41.6004
 -22192379.97347 -17034528.57847  21080862.7704   21080864.0364   21080862.746
        46.9004         43.9004
  -2820090.06246  -2187793.35545  24431573.4444   24431577.1344   24431574.463
        36.3004         34.3004
 -17692394.43947 -13768322.98446  21554432.0154   21554433.7644   21554431.520
        44.6004         41.8004
  -1388321.93045  -1072267.23945  24923590.4294   24923594.5984   24923591.907
        35.9004         34.5004
  -3698819.13246  -2870130.82046  24145930.2444   24145933.8594   24145931.256
        39.0004         36.4004
 -16009059.66447 -12459789.63646  21933614.6954   21933614.8494   21933614.846
        44.6004         41.8004
 -24010693.24848 -18289668.20347  20566627.7264   20566628.2714   20566627.610
        48.2004         45.2004
 14  9 12  0 11  0.0000000  0  8G18G15G16G26G22G05G21G29
 -16649247.37747 -12713019.04246  21828552.1194   21828553.4594   21828553.112
        44.4004         41.8004
 -22232888.80147 -17066093.85447  21073154.2594   21073155.7114   21073154.177
        46.9004         43.9004
  -2834128.80146  -2198732.61045  24428902.7064   24428906.9044   24428903.846
        36.4004         34.6004
 -17676679.19247 -13756077.32646  21557420.9774   21557423.3724   21557421.961
        44.6004         41.6004
  -1478639.30746  -1142644.19545  24906404.3594   24906407.2594   24906405.074
        36.8004         35.0004
  -3601650.53146  -2794415.07446  24164421.2934   24164422.8464   24164421.729
        38.5004         36.0004
 -16061741.79447 -12500840.63446  21923589.1654   21923589.9644   21923589.961
        44.8004         41.9004
 -23957893.80448 -18248525.80247  20576675.2164   20576676.0484   20576674.984
        48.2004         45.2004
 14  9 12  0 11 30.0000000  0  8G18G15G16G26G22G05G21G29
 -16704786.21747 -12756296.02146  21817983.9894   21817984.6264   21817984.537
        44.6004         41.8004
 -22272831.29047 -17097217.82647  21065553.9134   21065554.4524   21065553.719
        46.9004         44.0004
  -2847618.01246  -2209243.68545  24426337.9704   24426338.8254   24426336.586
        36.4004         34.5004
 -17660260.99447 -13743283.91146  21560545.8514   21560547.2704   21560546.226
        44.4004         41.4004
  -1568838.20846  -1212928.84745  24889240.0994   24889242.3044   24889241.069
        37.0004         35.2004
  -3504461.40446  -2718683.35445  24182917.5084   24182918.8304   24182916.355
        38.2004         35.7004
 -16114319.05047 -12541809.90146  21913584.3534   21913584.7954   21913585.129
        44.8004         41.9004
 -23904590.37448 -18206990.68047  20586818.6294   20586819.1974   20586818.447
        48.2004         45.2004
 14  9 12  0 12  0.0000000  0  8G18G15G16G26G22G05G21G29
 -16760046.55647 -12799355.98546  21807467.5034   21807469.4404   21807468.651
        44.8004         41.8004
 -22312205.88147 -17127899.28047  21058061.0934   21058061.9504   21058060.922
        47.0004         44.0004
  -2860557.70746  -2219326.53845  24423873.8494   24423875.3404   24423873.762
        36.3004         34.5004
 -17643140.13147 -13729942.97246  21563804.0674   21563805.0794   21563803.813
        44.2004         41.1004
  -1658917.92146  -1283120.60945  24872097.5004   24872100.2044   24872099.220
        36.8004         34.8004
  -3407252.80546  -2642936.45245  24201415.7014   24201417.6444   24201414.241
        37.8004         35.3004
 -16166790.69447 -12582696.88547  21903599.2094   21903599.5504   21903600.086
        44.9004         42.3004
 -23850783.61048 -18165063.35147  20597057.3604   20597058.0554   20597057.468
        48.2004         45.2004
 14  9 12  0 12 30.0000000  0  8G18G15G16G26G22G05G21G29
 -16815028.14347 -12842198.73046  21797005.5434   21797005.8934   21797006.092
        44.8004         41.9004
 -22351010.74847 -17158136.79647  21050677.0234   21050677.7194   21050676.519
        47.0004         44.0004
  -2872947.78846  -2228981.11745  24421514.9014   24421519.2594   24421515.846
        36.6004         34.6004
 -17625317.26647 -13716055.02046  21567195.4504   21567197.0684   21567195.437
        44.1004         41.1004
  -1748877.85346  -1353219.07145  24854978.8724   24854982.3284   24854980.236
        36.8004         34.6004
  -3310026.70346  -2567175.93545  24219915.9264   24219917.0644   24219915.697
        37.3004         35.2004
 -16219155.64047 -12623500.72147  21893635.1414   21893635.1404   21893635.230
        44.9004         42.1004
 -23796474.88948 -18122744.88547  20607392.1764   20607392.8374   20607392.138
        48.1004         45.1004
 14  9 12  0 13  0.0000000  0  8G18G15G16G26G22G05G21G29
 -16869730.62047 -12884824.00646  21786595.9764   21786596.0944   21786596.557
        44.8004         41.8004
 -22389244.40447 -17187929.20747  21043400.7524   21043401.9074   21043400.917
        47.0004         44.0004
  -2884788.59646  -2238207.70745  24419264.1614   24419266.1004   24419263.953
        36.6004         34.8004
 -17606792.77947 -13701620.34846  21570720.2704   21570721.8324   21570720.805
        43.9004         41.1004
  -1838717.20146  -1423223.58645  24837882.7994   24837887.0844   24837884.481
        36.6004         34.6004
  -3212784.17746  -2491402.58845  24238421.1054   24238420.7254   24238421.193
        37.3004         35.0004
 -16271413.27147 -12664220.93947  21883690.0764   21883691.1244   21883690.837
        44.9004         42.1004
 -23741665.33448 -18080036.15647  20617822.2454   20617822.6114   20617822.026
        48.1004         45.2004
 14  9 12  0 13 30.0000000  0  8G18G15G16G26G22G05G21G29
 -16924154.08247 -12927231.86246  21776239.6254   21776239.9474   21776240.192
        44.9004         41.9004
 -22426905.59247 -17217275.54347  21036234.1164   21036235.0814   21036234.119
        47.0004         44.0004
  -2896079.95546  -2247006.17645  24417113.8794   24417116.4644   24417115.263
        36.6004         34.6004
 -17587567.26047 -13686639.42346  21574379.0074   21574380.7504   21574379.418
        43.9004         41.2004
  -1928434.92546  -1493133.33545  24820811.7704   24820812.2344   24820811.838
        36.8004         34.8004
  -3115526.64746  -2415617.55545  24256928.9294   24256929.2184   24256928.452
        37.3004         35.2004
 -16323562.46647 -12704856.67446  21873765.7004   21873767.2854   21873767.149
        44.9004         41.9004
 -23686356.25548 -18036938.18647  20628347.1944   20628347.9904   20628347.121
        48.1004         45.1004
 14  9 12  0 14  0.0000000  0  8G18G15G16G26G22G05G21G29
 -16978298.34147 -12969422.14947  21765936.0734   21765936.2894   21765936.807
        45.1004         42.3004
 -22463992.77847 -17246174.59647  21029176.8664   21029177.7474   21029176.599
        47.2004         44.2004
  -2906821.67746  -2255376.33345  24415068.8824   24415072.8454   24415070.696
        36.3004         34.3004
 -17567641.21547 -13671112.63446  21578170.7644   21578171.3424   21578171.007
        44.1004         41.2004
  -2018030.74046  -1562948.10545  24803760.5364   24803762.9394   24803762.031
        36.8004         34.8004
  -3018255.42646  -2339821.83445  24275438.4854   24275440.5744   24275438.411
        37.3004         35.5004
 -16375602.34147 -12745407.21247  21863863.4714   21863864.3044   21863864.039
        44.9004         42.1004
 -23630549.05148 -17993452.06747  20638966.8534   20638967.7224   20638966.801
        48.1004         45.1004
 14  9 12  0 14 30.0000000  0  8G18G15G16G26G22G05G21G29
 -17032163.80547 -13011395.19947  21755685.8234   21755686.7944   21755686.491
        45.1004         42.3004
 -22500504.35547 -17274625.13547  21022228.9194   21022229.5264   21022228.763
        47.2004         44.4004
  -2917014.59646  -2263318.83045  24413130.1694   24413132.6924   24413131.097
        36.4004         34.5004
 -17547015.25647 -13655040.46646  21582096.0114   21582097.4164   21582096.221
        44.1004         41.2004
  -2107503.40146  -1632666.92145  24786734.1134   24786738.1024   24786735.765
        37.0004         34.8004
  -2920972.18446  -2264016.78145  24293951.6724   24293952.2834   24293951.359
        37.6004         35.7004
 -16427532.18347 -12785872.01647  21853982.0754   21853981.9574   21853982.389
        44.9004         42.1004
 -23574244.97648 -17949578.78247  20649681.0684   20649681.8474   20649681.009
        48.1004         45.1004
 14  9 12  0 15  0.0000000  0  8G18G15G16G26G22G05G21G29
 -17085749.79747 -13053150.48447  21745487.9294   21745489.5774   21745489.251
        45.3004         42.1004
 -22536438.94947 -17302626.07447  21015390.7634   21015391.4714   21015390.788
        47.2004         44.2004
  -2926658.50046  -2270833.56445  24411294.4674   24411297.7154   24411294.752
        36.3004         34.3004
 -17525690.11547 -13638423.46146  21586153.4034   21586155.9234   21586153.861
        44.1004         41.4004
  -2196852.26146  -1702289.27045  24769731.5994   24769735.3104   24769732.727
        36.8004         34.6004
  -2823678.66746  -2188203.71045  24312464.4344   24312467.3664   24312465.565
        37.6004         35.5004
 -16479350.85047 -12826250.17447  21844121.2544   21844121.3444   21844121.768
        44.9004         42.1004
 -23517444.81047 -17905318.93247  20660489.5124   20660490.4504   20660489.820
        47.9004         44.9004
 14  9 12  0 15 30.0000000  0  8G18G15G16G26G22G05G21G29
 -17139056.74447 -13094688.32747  21735344.7284   21735345.7474   21735345.417
        45.3004         42.5004
 -22571795.15147 -17330176.31847  21008662.6774   21008663.0424   21008662.450
        47.2004         44.4004
  -2935753.38346  -2277920.48845  24409564.8544   24409565.7434   24409565.273
        36.3004         34.3004
 -17503666.43547 -13621262.16546  21590344.9344   21590346.7324   21590345.118
        44.1004         41.2004
  -2286076.51946  -1771814.52845  24752753.2344   24752757.0184   24752753.686
        36.4004         34.3004
  -2726375.70646  -2112383.26745  24330982.6034   24330983.9564   24330981.326
        38.0004         35.9004
 -16531057.44147 -12866541.02047  21834281.6804   21834282.2184   21834281.959
        45.1004         42.3004
 -23460150.46547 -17860674.01247  20671392.5984   20671393.1374   20671392.519
        47.9004         44.9004
 14  9 12  0 16  0.0000000  0  8G18G15G16G26G22G05G21G29
 -17192084.27347 -13136008.44347  21725253.7884   21725254.6394   21725254.568
        45.5004         42.3004
 -22606571.47447 -17357274.70747  21002045.3444   21002045.5124   21002044.694
        47.2004         44.2004
  -2944299.52345  -2284579.80845  24407938.5204   24407940.5184   24407937.937
        35.9004         34.0004
 -17480944.75647 -13603556.95546  21594668.8184   21594671.4904   21594668.830
        44.2004         41.2004
  -2375175.50246  -1841242.12045  24735798.2194   24735803.6554   24735798.284
        36.3004         34.1004
  -2629064.58346  -2036556.47746  24349499.1404   24349501.7674   24349499.024
        38.3004         36.2004
 -16582651.26247 -12906743.98247  21824463.5914   21824463.5894   21824464.295
        45.1004         42.1004
 -23402363.30447 -17815645.08347  20682389.1014   20682389.6244   20682389.071
        47.9004         44.9004
 14  9 12  0 16 30.0000000  0  8G18G15G16G26G22G05G21G29
 -17244832.29647 -13177110.75847  21715216.0184   21715216.6344   21715216.934
        45.5004         42.5004
 -22640766.74847 -17383920.33447  20995537.7304   20995538.1804   20995537.567
        47.2004         44.4004
  -2952297.09545  -2290811.67145  24406415.9894   24406419.1064   24406417.005
        35.9004         34.3004
 -17457525.92247 -13585308.51246  21599125.4434   21599127.6484   21599125.054
        44.1004         41.2004
  -2464148.55246  -1910571.63645  24718864.1124   24718868.2214   24718866.982
        36.1004         34.1004
  -2531746.75646  -1960724.47146  24368018.2204   24368021.2374   24368018.489
        38.9004         36.7004
 -16634131.35847 -12946858.31947  21814667.2794   21814668.0524   21814668.005
        45.1004         42.1004
 -23344084.42347 -17770232.99647  20693479.0944   20693480.0654   20693479.196
        47.9004         44.9004
 14  9 12  0 17  0.0000000  0  8G18G15G16G26G22G05G21G29
 -17297301.12947 -13217995.51247  21705231.3094   21705232.2834   21705232.369
        45.5004         42.6004
 -22674379.56047 -17410112.09647  20989141.5494   20989141.7064   20989141.539
        47.2004         44.4004
  -2959746.10646  -2296616.08645  24404999.1934   24405000.3434   24404998.716
        36.1004         34.1004
 -17433410.79447 -13566517.49846  21603714.1124   21603716.5164   21603714.250
        44.1004         41.1004
  -2552994.81745  -1979802.31345  24701957.9104   24701963.0254   24701959.595
        35.9004         34.1004
  -2434423.87946  -1884888.53046  24386538.5774   24386541.2444   24386538.151
        39.0004         36.9004
 -16685496.64947 -12986883.19347  21804892.9514   21804893.0714   21804893.305
        45.1004         42.3004
 -23285315.05347 -17724438.70547  20704662.7694   20704663.6404   20704662.916
        47.9004         44.9004
 14  9 12  0 17 30.0000000  0  8G18G15G16G26G22G05G21G29
 -17349490.63247 -13258662.61647  21695299.9064   21695300.9414   21695300.970
        45.5004         42.5004
 -22707408.54047 -17435848.92247  20982856.2384   20982856.8064   20982856.033
        47.4004         44.4004
  -2966647.01246  -2301993.40645  24403685.1374   24403688.2234   24403685.550
        36.1004         34.3004
 -17408600.03447 -13547184.43646  21608434.7094   21608437.6234   21608435.243
        43.9004         40.9004
  -2641713.68246  -2048933.69845  24685076.9094   24685079.5214   24685077.839
        36.1004         34.0004
  -2337097.22046  -1809049.62846  24405059.1264   24405061.8894   24405059.326
        39.6004         37.3004
 -16736746.24347 -13026817.91047  21795139.9094   21795139.8054   21795140.625
        45.1004         42.1004
 -23226056.74647 -17678263.42247  20715938.9344   20715939.9514   20715939.013
        47.9004         44.9004
 14  9 12  0 18  0.0000000  0  8G18G15G16G26G22G05G21G29
 -17401400.21547 -13299111.60947  21685422.2924   21685422.7954   21685422.913
        45.5004         42.3004
 -22739852.38147 -17461129.79547  20976681.9214   20976683.0714   20976681.903
        47.2004         44.4004
  -2973000.16846  -2306943.92045  24402477.3234   24402478.1804   24402477.000
        36.1004         34.3004
 -17383094.50447 -13527309.99146  21613288.4494   21613290.3484   21613288.973
        43.7004         40.7004
  -2730304.28046  -2117965.15045  24668218.7724   24668220.1444   24668219.500
        36.1004         34.3004
  -2239767.85346  -1733208.60846  24423580.6464   24423583.4954   24423580.765
        39.7004         37.4004
 -16787879.13647 -13066661.69046  21785409.2234   21785409.8724   21785410.250
        44.9004         41.9004
 -23166310.95247 -17631708.27647  20727308.1034   20727309.3024   20727308.185
        47.7004         44.7004
 14  9 12  0 18 30.0000000  0  8G18G15G16G26G22G05G21G29
 -17453030.60547 -13339343.03447  21675597.3374   21675597.6254   21675597.917
        45.5004         42.5004
 -22771709.97347 -17485953.85647  20970619.9394   20970620.3804   20970619.560
        47.2004         44.2004
  -2978805.82546  -2311467.81745  24401370.5204   24401373.8474   24401372.953
        36.3004         34.5004
 -17356895.12347 -13506894.90246  21618274.8734   21618275.7604   21618274.622
        43.6004         40.7004
  -2818766.08846  -2186896.23945  24651382.6174   24651386.5644   24651385.285
        36.3004         34.3004
  -2142437.34346  -1657366.70146  24442102.4434   24442105.4214   24442101.774
        39.7004         37.4004
 -16838894.49947 -13106413.90046  21775701.5574   21775702.1304   21775702.175
        44.9004         41.9004
 -23106079.02647 -17584774.32347  20738770.2834   20738771.1674   20738770.306
        47.7004         44.7004
 14  9 12  0 19  0.0000000  0  8G18G15G16G26G22G05G21G29
 -17504381.82747 -13379356.93847  21665825.2374   21665826.2374   21665826.094
        45.5004         42.6004
 -22802980.14047 -17510320.18747  20964669.3324   20964670.1234   20964669.202
        47.4004         44.4004
  -2984064.31146  -2315565.32445  24400370.2054   24400373.5004   24400370.691
        36.1004         34.3004
 -17330002.73747 -13485939.79746  21623392.1364   21623393.9254   21623392.133
        43.6004         40.9004
  -2907098.19045  -2255726.26345  24634575.1624   24634576.9964   24634575.514
        35.9004         34.0004
  -2045106.66446  -1581524.65846  24460622.3504   24460625.7514   24460622.526
        39.6004         36.9004
 -16889790.92147 -13146073.42246  21766016.5214   21766016.7054   21766017.091
        44.9004         41.9004
 -23045362.28247 -17537462.59847  20750324.7084   20750325.0674   20750324.351
        47.7004         44.7004
 14  9 12  0 19 30.0000000  0  8G18G15G16G26G22G05G21G29
 -17555453.50447 -13419153.00547  21656106.9274   21656107.4654   21656107.333
        45.5004         42.8004
 -22833661.44547 -17534227.65247  20958830.9644   20958831.7104   20958830.776
        47.4004         44.4004
  -2988775.87846  -2319236.66945  24399474.6484   24399477.4674   24399474.199
        36.3004         34.3004
 -17302418.22647 -13464445.37646  21628640.8964   21628642.2714   21628641.278
        43.6004         40.6004
  -2995299.91945  -2324454.67445  24617791.3324   24617794.6514   24617791.192
        35.9004         34.1004
  -1947777.40846  -1505683.71846  24479143.9754   24479146.9354   24479143.543
        39.2004         36.6004
 -16940567.92747 -13185639.88147  21756354.0534   21756354.2594   21756354.939
        44.9004         42.3004
 -22984162.45047 -17489774.43447  20761970.7894   20761970.8044   20761970.344
        47.7004         44.7004
 14  9 12  0 20  0.0000000  0  8G18G15G16G26G22G05G21G29
 -17606245.76047 -13458731.35747  21646441.1134   21646441.9664   21646442.028
        45.6004         42.6004
 -22863752.78047 -17557675.41547  20953104.8974   20953105.5364   20953104.661
        47.4004         44.4004
  -2992941.02246  -2322482.24145  24398679.7214   24398684.3294   24398682.221
        36.3004         34.3004
 -17274142.62647 -13442412.44446  21634021.8864   21634023.2974   21634021.978
        43.6004         40.6004
  -3083370.39845  -2393080.80345  24601031.6154   24601034.0024   24601030.483
        35.6004         34.0004
  -1850450.94446  -1429844.97146  24497665.0984   24497667.6304   24497664.411
        38.7004         36.2004
 -16991224.57247 -13225112.55847  21746714.5204   21746714.5454   21746715.139
        45.1004         42.3004
 -22922480.90447 -17441710.91547  20773707.9644   20773708.7944   20773707.954
        47.7004         44.7004
 14  9 12  0 20 30.0000000  0  8G18G15G16G26G22G05G21G29
 -17656758.52147 -13498091.90647  21636829.4414   21636829.5694   21636829.590
        45.6004         42.6004
 -22893253.02147 -17580662.57747  20947490.5854   20947491.7984   20947490.805
        47.4004         44.4004
  -2996560.26946  -2325302.42845  24397993.4824   24397996.5434   24397994.908
        36.3004         34.5004
 -17245176.92347 -13419841.77246  21639533.3634   21639534.8234   21639533.935
        43.4004         40.7004
  -3171309.03445  -2461604.24245  24584295.7524   24584298.6504   24584296.572
        35.9004         34.3004
  -1753128.53946  -1354009.36645  24516184.2014   24516186.9164   24516184.470
        38.2004         35.2004
 -17041759.94647 -13264490.74847  21737097.8364   21737098.3934   21737098.523
        45.1004         42.1004
 -22860318.82247 -17393272.95247  20785536.9054   20785537.9044   20785536.887
        47.7004         44.7004
 14  9 12  0 21  0.0000000  0  8G18G15G16G26G22G05G21G29
 -17706991.93247 -13537234.79247  21627270.2784   21627270.6054   21627270.442
        45.6004         42.6004
 -22922160.96147 -17603188.20847  20941989.7734   20941990.6204   20941989.448
        47.4004         44.5004
  -2999633.35446  -2327697.03545  24397409.1444   24397413.0254   24397408.831
        36.3004         34.5004
 -17215522.10547 -13396734.11946  21645177.3384   21645178.4254   21645177.000
        43.4004         40.6004
  -3259115.00946  -2530024.32145  24567586.3574   24567589.9094   24567587.298
        36.1004         34.3004
  -1655811.19146  -1278177.72945  24534704.0234   24534707.0284   24534703.258
        37.3004         34.8004
 -17092172.65347 -13303773.34247  21727504.5004   21727505.1294   21727505.032
        45.1004         42.3004
 -22797677.99947 -17344461.94947  20797457.3414   20797457.9844   20797457.109
        47.7004         44.7004
 14  9 12  0 21 30.0000000  0  8G18G15G16G26G22G05G21G29
 -17756945.92747 -13576159.95247  21617764.1044   21617764.5124   21617764.627
        45.6004         42.6004
 -22950475.36647 -17625251.34847  20936601.9784   20936602.6704   20936601.626
        47.4004         44.5004
  -3002160.98446  -2329666.60645  24396928.2704   24396929.5204   24396928.035
        36.1004         34.1004
 -17185179.23947 -13373090.31446  21650951.2014   21650952.3444   21650951.032
        43.4004         40.7004
  -3346787.84346  -2598340.65745  24550902.8674   24550907.7524   24550904.678
        36.3004         34.5004
  -1558500.25146  -1202351.05645  24553221.2954   24553224.0744   24553220.933
        36.8004         34.5004
 -17142461.64247 -13342959.53947  21717934.7684   21717935.1134   21717935.128
        45.1004         42.1004
 -22734559.95447 -17295279.08247  20809468.1444   20809468.7914   20809468.177
        47.7004         44.7004
 14  9 12  0 22  0.0000000  0  8G18G15G16G26G22G05G21G29
 -17806620.43047 -13614867.32247  21608310.6304   21608311.6404   21608311.769
        45.6004         42.6004
 -22978195.39847 -17646851.34347  20931327.1734   20931327.4534   20931326.787
        47.5004         44.5004
  -3004144.31645  -2331212.05545  24396549.6724   24396551.8814   24396550.145
        35.9004         34.3004
 -17154149.42747 -13348911.24146  21656855.0534   21656856.8784   21656855.880
        43.4004         40.6004
  -3434326.94646  -2666552.75545  24534245.5484   24534248.7604   24534246.196
        36.4004         34.5004
  -1461197.12846  -1126530.50345  24571737.9354   24571738.9514   24571737.671
        36.1004         34.1004
 -17192625.83247 -13382048.48847  21708389.1084   21708389.0104   21708389.492
        45.1004         42.1004
 -22670966.36047 -17245725.65647  20821570.0244   20821569.9774   20821569.823
        47.7004         44.5004
 14  9 12  0 22 30.0000000  0  8G18G15G16G26G22G05G21G29
 -17856015.58147 -13653357.00847  21598911.5934   21598912.5124   21598912.045
        45.6004         42.6004
 -23005319.95447 -17667987.33647  20926165.2054   20926165.8894   20926164.979
        47.4004         44.5004
  -3005583.48946  -2332333.49745  24396274.4114   24396278.8704   24396276.297
        36.1004         34.3004
 -17122433.76047 -13324197.72746  21662891.0624   21662892.8734   21662891.252
        43.6004         40.7004
  -3521731.52846  -2734660.03145  24517612.9524   24517616.7604   24517614.065
        36.6004         34.6004
  -1363903.13745  -1050717.03845  24590253.3084   24590251.5684   24590251.198
        35.7004         33.8004
 -17242664.59047 -13421039.69847  21698866.9544   21698866.5574   21698867.366
        45.1004         42.3004
 -22606898.65647 -17195802.78847  20833761.6904   20833761.9504   20833761.486
        47.7004         44.7004
 14  9 12  0 23  0.0000000  0  8G18G15G16G26G22G05G21G29
 -17905131.62447 -13691629.21447  21589564.8104   21589565.1954   21589565.456
        45.6004         42.6004
 -23031847.96947 -17688658.48847  20921117.4274   20921117.9214   20921116.875
        47.5004         44.5004
  -3006478.82945  -2333031.16245  24396103.8554   24396107.1514   24396105.230
        35.7004         34.0004
 -17090033.39947 -13298950.70146  21669055.7204   21669058.5894   21669057.059
        43.7004         40.9004
  -3609000.71146  -2802661.82245  24501007.0204   24501009.1724   24501007.491
        36.8004         34.8004
  -1266619.37045   -974911.54345  24608764.8014   24608765.9214   24608764.298
        35.6004         34.1004
 -17292576.93847 -13459932.41947  21689369.0084   21689368.8794   21689369.539
        45.3004         42.5004
 -22542358.28747 -17145511.60847  20846042.9124   20846043.5304   20846043.060
        47.5004         44.5004
 14  9 12  0 23 30.0000000  0  8G18G15G16G26G22G05G21G29
 -17953968.48647 -13729683.87847  21580271.1374   21580272.2164   21580272.018
        45.6004         42.5004
 -23057778.38147 -17708863.97347  20916182.5754   20916183.2164   20916182.237
        47.5004         44.5004
  -3006831.08445  -2333305.63445  24396036.8414   24396039.5444   24396039.701
        35.9004         34.0004
 -17056949.44847 -13273170.99546  21675352.7104   21675354.3454   21675352.708
        43.7004         40.7004
  -3696134.05546  -2870557.77045  24484425.0344   24484428.0784   24484426.653
        37.5004         35.5004
  -1169347.21845   -899115.08445  24627274.4344   24627277.0174   24627275.011
        35.9004         34.3004
 -17342362.04747 -13498725.98647  21679895.2574   21679895.5484   21679895.784
        45.3004         42.5004
 -22477346.80047 -17094853.32747  20858414.2854   20858415.0374   20858414.437
        47.5004         44.5004
 14  9 12  0 24  0.0000000  0  8G18G15G16G26G22G05G21G29
 -18002526.21447 -13767521.02447  21571031.4994   21571032.0374   21571031.723
        45.6004         42.6004
 -23083110.26447 -17728603.07347  20911362.2424   20911362.9094   20911361.758
        47.5004         44.5004
  -3006640.63945  -2333157.24245  24396074.1904   24396078.2904   24396074.900
        35.9004         34.1004
 -17023183.23447 -13246859.67346  21681777.9664   21681779.4794   21681778.251
        43.6004         40.7004
  -3783130.83246  -2938347.31145  24467871.1664   24467873.7344   24467871.810
        37.8004         35.7004
  -1072087.69146   -823328.47845  24645784.5614   24645784.7034   24645783.456
        36.3004         34.5004
 -17392018.42247 -13537419.24347  21670445.9794   21670446.1814   21670446.483
        45.3004         42.5004
 -22411865.77947 -17043829.18847  20870875.4104   20870875.6544   20870874.960
        47.4004         44.4004
 14  9 12  0 24 30.0000000  0  8G18G15G16G26G22G05G21G29
 -18050804.95747 -13805140.79147  21561844.1314   21561845.1744   21561844.547
        45.5004         42.6004
 -23107842.59447 -17747874.98847  20906656.0454   20906656.1824   20906655.484
        47.5004         44.5004
  -3005908.15045  -2332586.46445  24396213.5364   24396216.7804   24396214.278
        35.6004         33.8004
 -16988735.90647 -13220017.60846  21688333.7554   21688333.7954   21688333.296
        43.4004         40.6004
  -3869990.33246  -3006029.89545  24451341.2414   24451344.4174   24451342.431
        38.0004         35.9004
   -974842.24646   -747552.81145  24664288.7784   24664288.2524   24664288.177
        36.6004         34.8004
 -17441544.98447 -13576011.34547  21661021.0964   21661020.9074   21661021.791
        45.3004         42.5004
 -22345917.30347 -16992440.80347  20883424.5714   20883425.2754   20883424.251
        47.4004         44.4004
 14  9 12  0 25  0.0000000  0  8G18G15G16G26G22G05G21G29
 -18098804.76847 -13842543.21247  21552709.8744   21552710.8264   21552710.697
        45.6004         42.6004
 -23131974.38547 -17766678.95447  20902063.4344   20902064.0114   20902063.312
        47.5004         44.5004
  -3004634.07945  -2331593.68345  24396458.4904   24396457.4054   24396458.534
        35.9004         34.1004
 -16953608.82847 -13192645.87146  21695017.7504   21695018.9804   21695017.621
        43.2004         40.4004
  -3956712.04846  -3073605.10946  24434839.9414   24434841.2304   24434839.964
        38.3004         36.0004
   -877611.86646   -671788.89945  24682790.5924   24682792.3294   24682790.370
        37.1004         35.2004
 -17490940.90147 -13614501.64947  21651621.5414   21651622.0174   21651622.115
        45.3004         42.5004
 -22279502.66247 -16940689.17047  20896062.9104   20896063.7244   20896062.733
        47.2004         44.2004
 14  9 12  0 25 30.0000000  0  8G18G15G16G26G22G05G21G29
 -18146525.66147 -13879728.28447  21543629.2514   21543629.7314   21543629.602
        45.6004         42.6004
 -23155504.79347 -17785014.30247  20897585.7894   20897586.4204   20897585.464
        47.5004         44.5004
  -3002818.84945  -2330179.20245  24396801.6994   24396803.7184   24396803.774
        35.9004         34.3004
 -16917803.21547 -13164745.40046  21701830.2654   21701832.5814   21701830.791
        43.2004         40.2004
  -4043295.06246  -3141072.26446  24418362.8944   24418363.7914   24418363.790
        38.5004         36.0004
   -780398.00346   -596037.85745  24701289.0854   24701291.0534   24701288.941
        37.3004         35.3004
 -17540205.02847 -13652889.26347  21642246.9754   21642247.1754   21642247.400
        45.3004         42.5004
 -22212623.51547 -16888575.58147  20908789.7764   20908789.8754   20908789.482
        47.2004         44.2004
 14  9 12  0 26  0.0000000  0  8G18G15G16G26G22G05G21G29
 -18193967.60247 -13916695.99847  21534600.9924   21534602.0044   21534601.753
        45.6004         42.8004
 -23178432.84947 -17802880.29647  20893222.9204   20893223.4574   20893222.579
        47.5004         44.5004
  -3000463.83645  -2328344.12745  24397249.2044   24397251.3834   24397249.999
        35.7004         33.8004
 -16881320.39247 -13136317.23446  21708773.5684   21708775.5324   21708773.327
        43.2004         40.4004
  -4129738.76246  -3208430.86246  24401913.5074   24401914.8684   24401913.679
        38.3004         36.0004
   -683201.41946   -520300.29745  24719785.5004   24719788.2874   24719785.829
        37.5004         35.5004
 -17589336.11747 -13691173.22047  21632897.3294   21632897.6864   21632898.054
        45.5004         42.5004
 -22145281.68947 -16836101.46147  20921604.5384   20921605.0714   20921604.447
        47.2004         44.2004
 14  9 12  0 26 30.0000000  0  8G18G15G16G26G22G05G21G29
 -18241130.83747 -13953446.54447  21525626.3024   21525627.2484   21525626.854
        45.6004         42.6004
 -23200757.94147 -17820276.44247  20888974.5164   20888975.1074   20888974.180
        47.5004         44.5004
  -2997569.40545  -2326088.73445  24397800.3264   24397800.8734   24397801.894
        35.7004         34.1004
 -16844161.80247 -13107362.49946  21715844.5194   21715846.0984   21715844.577
        43.4004         40.6004
  -4216042.70346  -3275680.55146  24385489.0814   24385490.8324   24385490.090
        38.2004         36.0004
   -586023.61646   -444577.37845  24738277.2764   24738280.6354   24738277.420
        37.8004         35.7004
 -17638333.24147 -13729352.78747  21623573.6904   21623573.8304   21623574.352
        45.5004         42.5004
 -22077478.84147 -16783268.09347  20934506.9804   20934507.2134   20934506.724
        47.2004         44.0004
 14  9 12  0 27  0.0000000  0  8G18G15G16G26G22G05G21G29
 -18288015.49447 -13989980.00947  21516704.0784   21516705.4174   21516705.057
        45.5004         42.6004
 -23222479.29647 -17837202.14547  20884840.7144   20884841.3394   20884840.750
        47.5004         44.7004
  -2994136.21145  -2323413.52045  24398453.3434   24398456.5284   24398454.523
        35.6004         34.1004
 -16806328.81447 -13077882.25446  21723044.2504   21723045.8004   21723044.137
        43.6004         40.7004
  -4302206.06446  -3342820.70745  24369091.9694   24369095.4264   24369093.493
        38.0004         35.7004
   -488865.80646   -368870.02445  24756765.2244   24756769.9134   24756765.781
        37.8004         35.5004
 -17687195.42647 -13767427.21547  21614275.7274   21614275.5484   21614276.492
        45.5004         42.6004
 -22009216.61647 -16730076.77247  20947496.5574   20947497.1464   20947496.708
        47.0004         44.2004
 14  9 12  0 27 30.0000000  0  8G18G15G16G26G22G05G21G29
 -18334621.40147 -14026296.26347  21507835.5224   21507836.1974   21507836.047
        45.6004         42.6004
 -23243595.81647 -17853656.55547  20880822.4754   20880822.8524   20880822.320
        47.7004         44.7004
  -2990165.02045  -2320319.09445  24399210.8144   24399213.5164   24399210.020
        35.7004         34.0004
 -16767822.75447 -13047877.54146  21730372.1704   21730373.0454   21730371.555
        43.6004         40.7004
  -4388228.36546  -3409850.94445  24352723.3084   24352724.9614   24352723.554
        37.6004         35.3004
   -391729.03646   -293179.08645  24775252.4294   24775252.4924   24775251.700
        38.0004         35.7004
 -17735921.51047 -13805395.57547  21605003.5564   21605003.4944   21605004.072
        45.5004         42.6004
 -21940496.81947 -16676528.90647  20960573.7154   20960574.5514   20960573.470
        47.0004         44.2004
 14  9 12  0 28  0.0000000  0  8G18G15G16G26G22G05G21G29
 -18380949.07147 -14062395.71747  21499019.5834   21499020.5434   21499020.149
        45.5004         42.6004
 -23264106.87847 -17869639.17547  20876919.3964   20876919.8204   20876919.123
        47.7004         44.7004
  -2985656.49745  -2316805.95345  24400067.0784   24400069.7014   24400068.883
        35.7004         34.1004
 -16728645.12747 -13017349.52946  21737827.5824   21737829.0374   21737826.959
        43.6004         40.7004
  -4474108.96246  -3476770.76345  24336380.9214   24336382.4094   24336381.356
        37.5004         35.3004
   -294614.51446   -217505.48045  24793731.4554   24793734.2494   24793731.379
        38.0004         35.9004
 -17784510.30147 -13843256.96547  21595756.9174   21595756.9384   21595757.731
        45.5004         42.5004
 -21871321.00647 -16622625.71247  20973737.8184   20973738.2184   20973737.336
        47.2004         44.2004
 14  9 12  0 28 30.0000000  0  8G18G15G16G26G22G05G21G29
 -18426998.25047 -14098278.16147  21490256.5914   21490257.2564   21490257.125
        45.5004         42.5004
 -23284011.69647 -17885149.39447  20873131.4874   20873132.3134   20873131.455
        47.7004         44.7004
  -2980611.33745  -2312874.66145  24401029.3084   24401029.4774   24401029.697
        35.9004         34.1004
 -16688797.46347 -12986299.41646  21745409.3474   21745410.8984   21745409.549
        43.7004         40.7004
  -4559847.25646  -3543579.69345  24320065.2594   24320066.6184   24320066.216
        37.5004         35.2004
   -197523.17246   -141849.94745  24812207.6854   24812209.4824   24812207.926
        37.8004         35.3004
 -17832960.87347 -13881010.64647  21586537.2604   21586537.0554   21586537.619
        45.5004         42.6004
 -21801690.81147 -16568368.45647  20986987.5814   20986988.6054   20986987.617
        47.2004         44.2004
 14  9 12  0 29  0.0000000  0  8G18G15G16G26G22G05G21G29
 -18472769.30547 -14133943.89147  21481546.4054   21481547.7374   21481547.100
        45.5004         42.6004
 -23303309.48647 -17900186.61047  20869459.5034   20869459.7134   20869459.427
        47.7004         44.7004
  -2975030.46745  -2308525.92545  24402091.3594   24402091.1654   24402090.573
        35.9004         34.1004
 -16648281.20547 -12954728.31646  21753119.1624   21753120.9384   21753119.610
        43.6004         40.6004
  -4645442.48846  -3610277.15345  24303774.8704   24303778.7184   24303777.220
        37.3004         35.0004
   -100456.35946    -66213.51245  24830679.0354   24830681.3004   24830678.420
        37.5004         35.3004
 -17881271.93647 -13918655.62847  21577344.1194   21577344.1784   21577344.555
        45.5004         42.6004
 -21731608.21947 -16513758.68647  21000324.1564   21000324.7284   21000323.817
        47.2004         44.2004
 14  9 12  0 29 30.0000000  0  8G18G15G16G26G22G05G21G29
 -18518262.30947 -14169392.96047  21472889.6194   21472890.1434   21472890.207
        45.5004         42.6004
 -23321999.70247 -17914750.38847  20865902.9194   20865903.1534   20865902.546
        47.7004         44.7004
  -2968914.69245  -2303760.40445  24403253.4234   24403253.9264   24403255.434
        35.7004         33.8004
 -16607097.84447 -12922637.40146  21760957.0004   21760957.9504   21760956.571
        43.4004         40.6004
  -4730894.12346  -3676862.70945  24287516.2344   24287518.5794   24287516.739
        37.1004         34.8004
     -3414.98746      9403.07745  24849143.2244   24849147.3594   24849144.931
        37.0004         34.8004
 -17929442.88147 -13956191.42647  21568177.5964   21568176.9624   21568178.013
        45.5004         42.5004
 -21661074.81647 -16458797.62647  21013745.8814   21013746.4284   21013745.922
        47.0004         44.2004
 14  9 12  0 30  0.0000000  0  8G18G15G16G26G22G05G21G29
 -18563477.50047 -14204625.54447  21464285.0684   21464285.8744   21464286.098
        45.5004         42.5004
 -23340081.64847 -17928840.19047  20862461.9234   20862462.2284   20862461.686
        47.7004         44.9004
  -2962264.77545  -2298578.62245  24404520.2854   24404522.0054   24404520.232
        35.6004         34.0004
 -16565249.02947 -12890027.95346  21768920.0384   21768920.8434   21768920.066
        43.4004         40.4004
  -4816201.49846  -3743335.84745  24271282.4724   24271283.8944   24271283.091
        36.8004         34.8004
     93599.44546     84998.70045  24867605.3514   24867609.4344   24867604.989
        36.8004         34.6004
 -17977472.00347 -13993616.69847  21559037.5924   21559037.5374   21559038.210
        45.5004         42.6004
 -21590092.86647 -16403487.04947  21027253.5344   21027254.1994   21027253.392
        47.0004         44.0004
 14  9 12  0 30 30.0000000  0  8G18G15G16G26G22G05G21G29
 -18608415.16047 -14239641.86947  21455734.0284   21455734.8904   21455734.709
        45.5004         42.5004
 -23357554.67447 -17942455.50947  20859136.9944   20859137.2334   20859136.909
        47.7004         44.7004
  -2955081.74245  -2292981.46545  24405883.5624   24405888.0344   24405885.773
        35.4004         33.6004
 -16522736.36747 -12856901.21146  21777010.0984   21777010.7294   21777009.966
        43.2004         40.4004
  -4901364.12846  -3809696.19945  24255074.8654   24255077.7994   24255077.389
        36.6004         34.6004
    190586.30246    160572.80445  24886061.5354   24886066.6064   24886062.259
        36.8004         34.5004
 -18025358.35947 -14030930.72847  21549925.0984   21549924.9004   21549925.828
        45.5004         42.6004
 -21518664.17347 -16347828.36547  21040846.3044   21040846.6124   21040845.945
