     2.11           OBSERVATION DATA    G (GPS)             RINEX VERSION / TYPE
clockShift          gpsops              20141028 000951 UTC PGM / RUN BY / DATE
teqc  2013Mar15     gpsops              20141028 00:09:50UTCCOMMENT
Linux 2.4.21-27.ELsmp|Opteron|gcc -static|Linux x86_64|=+   COMMENT
BIT 2 OF LLI FLAGS DATA COLLECTED UNDER A/S CONDITION       COMMENT
AMC2                                                        MARKER NAME
40472S004                                                   MARKER NUMBER
GGN                 USNO                                    OBSERVER / AGENCY
RT920013101         ASHTECH Z-XII3T     IL01-1D04-MCF-12MX  REC # / TYPE / VERS
KW-0201             AOAD/M_T        NONE                    ANT # / TYPE
 -1248596.2520 -4819428.2840  3976506.0340                  APPROX POSITION XYZ
        0.0000        0.0000        0.0000                  ANTENNA: DELTA H/E/N
     1     1                                                WAVELENGTH FACT L1/2
     7    L1    L2    P1    P2    C1    S1    S2            # / TYPES OF OBSERV
    30.0000                                                 INTERVAL
                                                            COMMENT
This data is provided as a public service by NASA/JPL.      COMMENT
No warranty is expressed or implied regarding suitability   COMMENT
for use.  For further information, contact:                 COMMENT
Dave Stowers, NASA/JPL m/s 238-600                          COMMENT
4800 Oak Grove Drive, Pasadena CA 91109 USA                 COMMENT
                                                            COMMENT
Forced Modulo Decimation to 30 seconds                      COMMENT
 SNR is mapped to RINEX snr flag value [0-9]                COMMENT
  L1 & L2: min(max(int(snr_dBHz/6), 0), 9)                  COMMENT
pseudorange smoothing corrections not applied               COMMENT
clockShift applied 466.79 L1, 478.44 L2 (ns)                COMMENT
  2014    10    27     0     0    0.0000000     GPS         TIME OF FIRST OBS
                                                            END OF HEADER
 14 10 27  0  0  0.0000000  0  8G27G19G24G15G22G18G21G14
 -12038478.50747  -9358073.39046  22504037.4014   22504043.7484   22504037.613
        43.2004         40.2004
  -8621351.41246  -6687467.21646  23256985.8544   23256989.0384   23256987.188
        40.8004         38.1004
 -12896549.54747 -10033453.38346  22410979.5914   22410984.2364   22410979.565
        42.9004         40.0004
  -5852602.46446  -4287399.11945  24145826.9024   24145830.1994   24145825.820
        37.3004         35.0004
 -21189867.34147 -16501360.58447  20867686.5254   20867686.4174   20867687.031
        47.2004         44.2004
 -20921684.47747 -16264395.62547  20954875.7874   20954877.1504   20954876.564
        46.9004         44.0004
 -19547295.78947 -15053955.70546  21275030.5784   21275032.2464   21275031.301
        44.6004         41.8004
 -16044891.00247 -12445649.37147  21324026.9084   21324029.5024   21324027.448
        45.3004         42.3004
 14 10 27  0  0 30.0000000  0  8G27G19G24G15G22G18G21G14
 -12008633.90247  -9334817.87246  22509716.5004   22509722.3904   22509716.856
        43.0004         40.2004
  -8645875.91946  -6706577.16046  23252319.2444   23252321.6934   23252319.552
        40.6004         37.9004
 -12899286.53147 -10035586.02946  22410459.2294   22410463.3024   22410458.560
        42.7004         40.0004
  -5749352.96246  -4206944.94045  24165472.7174   24165476.2074   24165473.511
        37.0004         34.8004
 -21221016.46547 -16525632.58147  20861758.4794   20861758.8934   20861759.369
        47.4004         44.4004
 -20899650.66147 -16247226.39647  20959068.8794   20959070.1444   20959069.470
        46.9004         44.0004
 -19491670.75847 -15010611.53546  21285616.0404   21285617.4834   21285615.991
        44.6004         41.6004
 -16107845.60947 -12494704.81247  21312047.0564   21312049.6994   21312047.375
        45.3004         42.3004
 14 10 27  0  1  0.0000000  0  8G27G19G24G15G22G18G21G14
 -11978261.64747  -9311151.20046  22515496.8984   22515502.5654   22515496.388
        43.0004         40.2004
  -8669832.71346  -6725244.71846  23247760.2074   23247763.2434   23247761.012
        40.4004         37.8004
 -12901440.41847 -10037264.31846  22410048.5174   22410053.9244   22410048.139
        42.7004         39.7004
  -5646038.82846  -4126440.40745  24185132.9104   24185137.3954   24185133.617
        36.8004         34.8004
 -21251967.68647 -16549750.36847  20855868.9824   20855869.2284   20855869.825
        47.4004         44.4004
 -20877425.00747 -16229907.69647  20963298.3544   20963299.5094   20963298.942
        46.9004         43.9004
 -19435612.57247 -14966929.83746  21296283.2494   21296284.6544   21296283.408
        44.6004         41.6004
 -16170398.08847 -12543446.90747  21300143.6424   21300146.5614   21300143.954
        45.3004         42.5004
 14 10 27  0  1 30.0000000  0  8G27G19G24G15G22G18G21G14
 -11947363.44247  -9287074.69146  22521376.4614   22521381.7484   22521375.999
        42.7004         39.9004
  -8693221.10946  -6743469.36346  23243309.1964   23243311.7554   23243310.269
        40.4004         37.8004
 -12903010.93847 -10038488.03046  22409750.0004   22409754.9724   22409749.287
        42.5004         39.7004
  -5542661.92946  -4045886.98245  24204806.4564   24204809.8994   24204804.967
        36.6004         34.6004
 -21282720.62747 -16573713.65547  20850016.5654   20850016.8284   20850017.720
        47.4004         44.4004
 -20855007.98947 -16212439.87047  20967563.6944   20967565.3114   20967564.768
        46.9004         44.0004
 -19379121.90447 -14922911.14346  21307032.6504   21307034.6104   21307033.461
        44.4004         41.6004
 -16232547.50047 -12591874.93347  21288316.8754   21288319.1614   21288317.340
        45.3004         42.5004
 14 10 27  0  2  0.0000000  0  8G27G19G24G15G22G18G21G14
 -11915940.97747  -9262589.67346  22527355.1714   22527361.6844   22527355.482
        42.7004         39.9004
  -8716040.80146  -6761250.86846  23238966.2724   23238969.0224   23238967.941
        40.4004         37.8004
 -12903997.60547 -10039256.79346  22409561.6934   22409566.7374   22409561.324
        42.5004         39.7004
  -5439224.54946  -3965286.43445  24224489.0584   24224491.5034   24224488.304
        36.8004         34.8004
 -21313274.84847 -16597522.08947  20844202.7304   20844202.5144   20844203.461
        47.4004         44.4004
 -20832399.24347 -16194822.64247  20971866.6714   20971867.7204   20971867.100
        46.9004         44.0004
 -19322199.48347 -14878556.02746  21317865.9924   21317867.1464   21317865.802
        44.6004         41.8004
 -16294292.97047 -12639988.18847  21276567.2604   21276569.4554   21276567.518
        45.5004         42.5004
 14 10 27  0  2 30.0000000  0  8G27G19G24G15G22G18G21G14
 -11883995.96647  -9237697.47146  22533434.7404   22533439.6934   22533434.208
        42.5004         39.7004
  -8738291.02146  -6778588.63946  23234732.5464   23234735.3054   23234733.749
        40.3004         37.6004
 -12904399.71347 -10039570.06146  22409484.6324   22409491.1914   22409485.127
        42.5004         39.7004
  -5335728.72246  -3884640.33245  24244184.6204   24244188.7384   24244183.244
        37.1004         35.2004
 -21343630.01147 -16621175.41747  20838425.8244   20838425.9204   20838426.928
        47.5004         44.4004
 -20809598.31847 -16177055.65347  20976205.4964   20976206.5374   20976205.925
        46.9004         44.0004
 -19264846.03647 -14833865.04546  21328779.3324   21328781.3344   21328779.749
        44.6004         41.6004
 -16355633.71047 -12687786.07047  21264894.7224   21264896.9194   21264894.842
        45.5004         42.6004
 14 10 27  0  3  0.0000000  0  8G27G19G24G15G22G18G21G14
 -11851530.24847  -9212399.52346  22539612.1894   22539618.2834   22539612.187
        42.5004         39.9004
  -8759971.39946  -6795482.37146  23230606.5004   23230609.5454   23230608.174
        40.4004         37.8004
 -12904217.05047 -10039427.66246  22409519.9254   22409525.6514   22409519.802
        42.5004         39.7004
  -5232176.27446  -3803950.12145  24263889.8484   24263892.7524   24263889.104
        37.6004         35.5004
 -21373785.81647 -16644673.39747  20832687.6194   20832687.4974   20832688.523
        47.5004         44.5004
 -20786605.45747 -16159139.10447  20980580.5034   20980582.2124   20980581.333
        46.9004         43.9004
 -19207062.41347 -14788838.86946  21339774.5894   21339776.9604   21339775.315
        44.6004         41.8004
 -16416568.77647 -12735267.82847  21253298.5344   21253301.0334   21253299.216
        45.5004         42.6004
 14 10 27  0  3 30.0000000  0  8G27G19G24G15G22G18G21G14
 -11818545.52147  -9186697.15846  22545889.7484   22545894.6754   22545889.157
        42.5004         39.7004
  -8781081.45646  -6811931.68646  23226590.1784   23226592.2484   23226590.914
        40.4004         37.8004
 -12903448.74647 -10038828.92946  22409665.8534   22409671.6704   22409666.131
        42.5004         39.9004
  -5128569.07646  -3723217.23046  24283605.3644   24283608.8994   24283605.006
        38.2004         36.0004
 -21403741.99247 -16668015.82147  20826986.7774   20826987.1364   20826987.964
        47.5004         44.4004
 -20763420.23547 -16141072.66747  20984992.6574   20984993.5074   20984993.126
        46.9004         43.9004
 -19148849.41647 -14743478.11946  21350852.3294   21350854.3204   21350852.842
        44.6004         41.8004
 -16477097.19147 -12782432.71747  21241780.4434   21241783.0104   21241780.964
        45.5004         42.6004
 14 10 27  0  4  0.0000000  0  8G27G19G24G15G22G18G21G14
 -11785043.60847  -9160591.79646  22552264.3634   22552270.1684   22552264.334
        42.7004         39.7004
  -8801620.60446  -6827936.15946  23222682.2904   23222683.4304   23222682.591
        40.6004         37.9004
 -12902094.78247 -10037773.82946  22409925.0004   22409929.1764   22409923.660
        42.7004         39.9004
  -5024909.11046  -3642443.22746  24303331.2094   24303335.0844   24303330.780
        38.3004         36.2004
 -21433498.19047 -16691202.42047  20821324.3884   20821324.5954   20821325.282
        47.5004         44.5004
 -20740042.51047 -16122856.23247  20989441.1394   20989442.6224   20989441.651
        46.9004         43.9004
 -19090207.35747 -14697783.02146  21362011.4714   21362014.0784   21362011.818
        44.6004         41.6004
 -16537218.14247 -12829280.10847  21230339.6074   21230341.6184   21230340.164
        45.5004         42.5004
 14 10 27  0  4 30.0000000  0  8G27G19G24G15G22G18G21G14
 -11751026.34547  -9134084.87146  22558737.6104   22558743.0544   22558737.761
        42.7004         39.9004
  -8821588.78946  -6843495.71946  23218881.5274   23218883.2924   23218882.562
        40.6004         37.9004
 -12900154.86247 -10036262.14646  22410293.2644   22410297.7954   22410292.774
        42.9004         40.2004
  -4921198.34046  -3561629.63246  24323066.5794   24323070.6764   24323066.552
        38.7004         36.4004
 -21463054.01847 -16714232.89047  20815700.4144   20815699.8774   20815701.159
        47.5004         44.5004
 -20716472.45347 -16104489.93347  20993926.2734   20993927.6424   20993926.997
        46.9004         43.9004
 -19031137.28747 -14651754.41746  21373251.9144   21373254.5654   21373252.769
        44.6004         41.8004
 -16596931.37147 -12875809.78947  21218976.8964   21218978.9684   21218976.982
        45.5004         42.6004
 14 10 27  0  5  0.0000000  0  8G27G19G24G15G22G18G21G14
 -11716495.54147  -9107177.78846  22565308.9204   22565314.6234   22565308.754
        42.7004         39.9004
  -8840985.44646  -6858609.94946  23215190.6504   23215193.2784   23215191.720
        40.4004         37.9004
 -12897628.50047 -10034293.49746  22410773.9114   22410778.4754   22410773.579
        43.0004         40.4004
  -4817438.77946  -3480778.02246  24342811.2924   24342815.4664   24342811.542
        38.9004         36.4004
 -21492409.23247 -16737107.03847  20810114.0534   20810114.3934   20810114.856
        47.5004         44.5004
 -20692709.51347 -16085973.33947  20998448.3854   20998449.5144   20998448.716
        46.9004         43.9004
 -18971640.26847 -14605393.12246  21384574.7684   21384576.3224   21384575.122
        44.6004         41.8004
 -16656235.65147 -12922020.82947  21207691.5954   21207693.4614   21207691.699
        45.6004         42.6004
 14 10 27  0  5 30.0000000  0  8G27G19G24G15G22G18G21G14
 -11681453.08347  -9079871.99846  22571977.3044   22571983.5574   22571977.231
        42.7004         40.0004
  -8859810.39246  -6873278.67346  23211608.5834   23211610.7964   23211608.910
        40.6004         37.9004
 -12894515.34747 -10031867.61146  22411366.1974   22411372.2174   22411366.047
        43.0004         40.4004
  -4713632.21646  -3399889.78946  24362565.5514   24362569.2624   24362565.362
        38.9004         36.6004
 -21521563.27547 -16759824.42547  20804565.9074   20804566.2964   20804566.927
        47.5004         44.4004
 -20668753.51047 -16067306.30347  21003007.0144   21003008.5224   21003007.661
        46.9004         43.9004
 -18911716.97547 -14558699.65746  21395977.5614   21395979.2774   21395978.218
        44.6004         41.6004
 -16715130.20947 -12967912.59647  21196484.1124   21196485.9304   21196484.459
        45.5004         42.5004
 14 10 27  0  6  0.0000000  0  8G27G19G24G15G22G18G21G14
 -11645900.78547  -9052168.93946  22578742.7724   22578748.5324   22578742.889
        42.9004         40.2004
  -8878063.01446  -6887501.45646  23208135.3854   23208136.8444   23208135.385
        40.4004         37.9004
 -12890815.13147 -10028984.27146  22412070.3514   22412075.8244   22412070.149
        43.0004         40.2004
  -4609780.55246  -3318966.41246  24382328.3364   24382330.1274   24382327.594
        38.9004         36.4004
 -21550516.00147 -16782384.94247  20799056.5104   20799056.6564   20799057.350
        47.5004         44.4004
 -20644604.40547 -16048488.80647  21007602.5234   21007603.8724   21007602.926
        46.9004         43.9004
 -18851367.97147 -14511674.46546  21407461.5854   21407462.9294   21407462.244
        44.6004         41.8004
 -16773614.24347 -13013484.47647  21185355.0774   21185356.6464   21185355.066
        45.6004         42.6004
 14 10 27  0  6 30.0000000  0  8G27G19G24G15G22G18G21G14
 -11609840.63747  -9024070.14846  22585605.3474   22585610.0614   22585604.826
        42.9004         40.2004
  -8895743.24546  -6901278.20546  23204770.4964   23204772.9764   23204770.983
        40.4004         37.9004
 -12886527.88347 -10025643.49546  22412886.3504   22412891.1094   22412885.590
        43.0004         40.2004
  -4505885.52146  -3238009.26046  24402097.8194   24402101.3184   24402098.027
        38.7004         36.4004
 -21579266.95347 -16804788.23447  20793585.3284   20793585.2244   20793586.086
        47.4004         44.4004
 -20620261.86747 -16029520.57347  21012235.0464   21012235.8384   21012235.270
        46.9004         43.9004
 -18790594.07047 -14464318.18746  21419025.7624   21419028.5834   21419026.848
        44.6004         41.8004
 -16831686.94247 -13058735.84047  21174303.9704   21174306.1324   21174304.369
        45.6004         42.6004
 14 10 27  0  7  0.0000000  0  8G27G19G24G15G22G18G21G14
 -11573274.46547  -8995577.05446  22592562.5074   22592569.2204   22592563.080
        42.9004         40.0004
  -8912850.65046  -6914608.59846  23201514.9924   23201517.4944   23201515.391
        40.6004         37.8004
 -12881652.90747 -10021844.76346  22413814.0554   22413818.2274   22413813.246
        42.9004         40.0004
  -4401949.41646  -3157020.09046  24421876.0924   24421879.6904   24421877.342
        38.7004         36.2004
 -21607815.69447 -16827033.96347  20788152.9834   20788152.9184   20788153.641
        47.5004         44.4004
 -20595725.79747 -16010401.52347  21016903.4334   21016904.9644   21016904.249
        46.9004         43.9004
 -18729396.92547 -14416632.11846  21430671.9424   21430674.2264   21430672.028
        44.4004         41.6004
 -16889347.71747 -13103666.21947  21163331.2804   21163333.2774   21163331.752
        45.6004         42.8004
 14 10 27  0  7 30.0000000  0  8G27G19G24G15G22G18G21G14
 -11536204.25947  -8966691.21746  22599616.9914   22599623.1584   22599617.180
        42.7004         39.9004
  -8929385.03446  -6927492.47846  23198367.7354   23198370.2734   23198369.316
        40.4004         37.9004
 -12876190.28647 -10017588.10446  22414852.2514   22414857.9794   22414852.503
        42.7004         39.9004
  -4297973.78346  -3076000.12646  24441663.0304   24441667.2864   24441662.400
        38.3004         36.0004
 -21636161.66147 -16849121.68747  20782758.6054   20782758.8574   20782759.531
        47.5004         44.5004
 -20570996.08747 -15991131.59647  21021609.6764   21021611.0684   21021610.252
        46.9004         43.9004
 -18667777.08347 -14368616.69246  21442397.2854   21442399.4294   21442397.702
        44.4004         41.4004
 -16946596.04247 -13148275.20647  21152437.0754   21152439.1944   21152437.522
        45.8004         42.8004
 14 10 27  0  8  0.0000000  0  8G27G19G24G15G22G18G21G14
 -11498631.97947  -8937414.13646  22606766.8554   22606773.7094   22606766.707
        42.5004         39.7004
  -8945346.03846  -6939929.55946  23195331.4324   23195334.2824   23195331.882
        40.4004         37.9004
 -12870139.86947 -10012873.43546  22416004.6584   22416009.7464   22416004.088
        42.7004         39.9004
  -4193960.67146  -2994950.93245  24461456.8974   24461459.3974   24461455.732
        38.0004         35.7004
 -21664304.58447 -16871051.19247  20777403.0334   20777403.2034   20777404.201
        47.5004         44.5004
 -20546072.24747 -15971710.39847  21026352.2084   21026353.5824   21026353.072
        46.9004         43.9004
 -18605735.08047 -14320272.29346  21454203.7294   21454206.1364   21454204.149
        44.4004         41.4004
 -17003431.02447 -13192562.10547  21141621.7344   21141624.1234   21141622.246
        45.8004         42.8004
 14 10 27  0  8 30.0000000  0  8G27G19G24G15G22G18G21G14
 -11460559.57547  -8907747.35146  22614011.2184   22614017.5094   22614011.680
        42.5004         39.7004
  -8960733.64346  -6951919.84846  23192402.9104   23192404.9534   23192403.606
        40.4004         37.8004
 -12863501.38047 -10007700.52446  22417267.9254   22417271.8204   22417267.229
        42.7004         39.9004
  -4089911.80146  -2913873.88645  24481256.0444   24481259.4474   24481255.080
        37.8004         35.7004
 -21692243.88047 -16892822.02947  20772086.6344   20772086.5314   20772087.480
        47.5004         44.5004
 -20520954.47047 -15952138.08947  21031132.2934   21031133.2234   21031132.911
        46.9004         43.9004
 -18543272.17647 -14271599.91846  21466089.9624   21466092.8294   21466090.728
        44.4004         41.6004
 -17059851.99147 -13236526.38947  21130885.3904   21130887.4404   21130885.752
        45.8004         43.0004
 14 10 27  0  9  0.0000000  0  8G27G19G24G15G22G18G21G14
 -11421989.06447  -8877692.43346  22621351.0684   22621357.5744   22621351.820
        42.3004         39.5004
  -8975547.66646  -6963463.18346  23189582.7774   23189585.9004   23189584.624
        40.4004         37.8004
 -12856275.03847 -10002069.53846  22418642.6704   22418647.1834   22418642.365
        42.7004         39.9004
  -3985829.02046  -2832770.41345  24501063.1024   24501064.6554   24501062.274
        37.5004         35.3004
 -21719979.89247 -16914434.45847  20766808.7354   20766808.4224   20766809.463
        47.5004         44.5004
 -20495642.42147 -15932414.39047  21035948.9204   21035950.4094   21035949.465
        46.9004         43.9004
 -18480389.09947 -14222600.13346  21478056.1524   21478058.9214   21478056.887
        44.4004         41.4004
 -17115858.24247 -13280167.52447  21120227.6024   21120229.8294   21120228.036
        46.0004         43.0004
 14 10 27  0  9 30.0000000  0  8G27G19G24G15G22G18G21G14
 -11382922.45347  -8847250.95646  22628785.9744   22628791.8794   22628785.851
        42.3004         39.5004
  -8989787.94246  -6974559.44546  23186874.1544   23186876.4294   23186875.018
        40.4004         37.8004
 -12848459.93947  -9995979.78846  22420130.0454   22420134.7694   22420129.703
        42.9004         40.2004
  -3881714.28946  -2751642.04645  24520874.3514   24520877.9994   24520874.853
        37.1004         35.0004
 -21747511.99847 -16935888.01047  20761569.2324   20761569.1734   20761570.072
        47.5004         44.5004
 -20470136.07447 -15912539.28947  21040802.2734   21040803.6484   21040803.065
        46.9004         43.9004
 -18417086.83047 -14173273.69846  21490102.7394   21490104.3594   21490102.952
        44.4004         41.4004
 -17171448.94447 -13323484.86647  21109648.8634   21109651.0834   21109649.165
        46.0004         43.0004
 14 10 27  0 10  0.0000000  0  8G27G19G24G15G22G18G21G14
 -11343361.78047  -8816424.47246  22636313.2254   22636320.3754   22636313.524
        42.2004         39.3004
  -9003454.39246  -6985208.57846  23184272.9024   23184275.0364   23184274.610
        40.4004         37.8004
 -12840056.63047  -9989431.69146  22421728.5724   22421734.4794   22421728.540
        42.9004         40.4004
  -3777569.29746  -2670490.07645  24540692.6504   24540695.5794   24540692.856
        36.6004         34.5004
 -21774839.50547 -16957182.12547  20756369.0624   20756368.7324   20756369.824
        47.5004         44.5004
 -20444434.80247 -15892512.30447  21045693.2564   21045694.3094   21045693.588
        46.7004         43.7004
 -18353366.29247 -14123621.34046  21502228.1824   21502230.2144   21502228.478
        44.4004         41.6004
 -17226623.72547 -13366478.11847  21099149.3204   21099151.8494   21099149.700
        46.0004         43.0004
 14 10 27  0 10 30.0000000  0  8G27G19G24G15G22G18G21G14
 -11303309.10247  -8785214.62446  22643935.3244   22643941.4964   22643935.338
        42.0004         39.3004
  -9016546.51746  -6995410.18546  23181781.3024   23181784.2464   23181782.534
        40.3004         37.8004
 -12831065.04347  -9982425.20046  22423439.8464   22423444.8904   22423439.720
        43.0004         40.2004
  -3673396.05046  -2589316.13845  24560517.6054   24560519.5944   24560516.328
        36.3004         34.3004
 -21801962.06747 -16978316.54347  20751207.5664   20751207.4204   20751208.482
        47.5004         44.5004
 -20418538.53847 -15872333.37247  21050621.1024   21050622.3854   21050621.719
        46.7004         43.7004
 -18289228.82447 -14073644.10846  21514432.6594   21514434.9674   21514433.465
        44.4004         41.6004
 -17281382.21847 -13409146.98447  21088729.0414   21088730.9354   21088729.382
        46.0004         43.2004
 14 10 27  0 11  0.0000000  0  8G27G19G24G15G22G18G21G14
 -11262766.50047  -8753623.00646  22651651.0334   22651657.0754   22651650.255
        42.0004         39.2004
  -9029064.59746  -7005164.48546  23179398.9494   23179402.2794   23179400.553
        40.4004         37.9004
 -12821485.11247  -9974960.25846  22425262.9654   22425267.8974   22425262.452
        43.0004         40.4004
  -3569196.15846  -2508121.40745  24580343.5214   24580349.5844   24580344.716
        36.1004         34.1004
 -21828878.94047 -16999290.68947  20746085.3454   20746085.1984   20746086.406
        47.5004         44.5004
 -20392447.32047 -15852002.53447  21055586.1634   21055587.4964   21055586.680
        46.7004         43.7004
 -18224675.20547 -14023342.59446  21526717.4984   21526718.9524   21526717.540
        44.4004         41.4004
 -17335723.21047 -13451490.53047  21078388.6944   21078390.6754   21078388.750
        46.0004         43.2004
 14 10 27  0 11 30.0000000  0  8G27G19G24G15G22G18G21G14
 -11221736.05147  -8721651.25346  22659459.2214   22659464.6974   22659458.772
        42.0004         39.3004
  -9041008.34746  -7014471.26946  23177126.7294   23177129.2844   23177127.730
        40.4004         37.9004
 -12811316.62747  -9967036.69746  22427197.8844   22427202.7234   22427197.219
        43.0004         40.0004
  -3464971.70146  -2426907.52345  24600177.5624   24600181.8524   24600178.028
        36.1004         34.3004
 -21855590.31047 -17020104.69447  20741002.4164   20741002.5274   20741003.349
        47.5004         44.5004
 -20366161.05847 -15831519.70547  21060588.1124   21060589.8134   21060588.869
        46.7004         43.7004
 -18159706.26347 -13972717.46346  21539079.7614   21539082.3434   21539080.651
        44.2004         41.4004
 -17389646.25547 -13493508.40147  21068126.9944   21068129.0364   21068127.625
        46.2004         43.2004
 14 10 27  0 12  0.0000000  0  8G27G19G24G15G22G18G21G14
 -11180219.89947  -8689301.03546  22667358.6184   22667365.1424   22667358.816
        42.0004         39.3004
  -9052378.05146  -7023330.72446  23174963.2094   23174965.6864   23174963.892
        40.4004         38.1004
 -12800559.43547  -9958654.41046  22429244.6794   22429249.7084   22429244.298
        42.9004         40.0004
  -3360724.10346  -2345675.61345  24620016.1524   24620017.9174   24620014.990
        36.3004         34.5004
 -21882095.54447 -17040758.07347  20735958.5974   20735958.7284   20735959.464
        47.5004         44.5004
 -20339679.28647 -15810884.54347  21065627.4834   21065628.4524   21065628.090
        46.5004         43.5004
 -18094323.10347 -13921769.57046  21551522.1964   21551524.3644   21551522.774
        44.2004         41.4004
 -17443150.83447 -13535200.19647  21057946.2364   21057946.9294   21057945.831
        46.0004         43.2004
 14 10 27  0 12 30.0000000  0  8G27G19G24G15G22G18G21G14
 -11138220.14847  -8656573.98046  22675350.6344   22675357.8324   22675350.988
        42.2004         39.5004
  -9063173.46946  -7031742.69646  23172908.6814   23172911.5154   23172909.562
        40.6004         38.1004
 -12789214.36047  -9949814.02046  22431403.3594   22431408.9294   22431402.897
        42.9004         40.0004
  -3256455.52446  -2264427.32245  24639858.0654   24639860.7794   24639857.054
        36.8004         35.0004
 -21908394.21747 -17061250.50447  20730954.0444   20730954.4944   20730955.027
        47.5004         44.7004
 -20313001.83747 -15790096.89547  21070704.4514   21070705.3214   21070704.761
        46.5004         43.7004
 -18028527.19747 -13870500.06146  21564043.0134   21564045.0094   21564043.465
        44.2004         41.4004
 -17496236.32847 -13576565.43147  21047843.2014   21047845.4984   21047843.746
        46.0004         43.0004
 14 10 27  0 13  0.0000000  0  8G27G19G24G15G22G18G21G14
 -11095738.93547  -8623471.76046  22683435.4874   22683441.3374   22683434.847
        42.2004         39.5004
  -9073394.90146  -7039707.41246  23170963.7644   23170966.2154   23170964.633
        40.8004         38.1004
 -12777281.07347  -9940515.29046  22433673.8764   22433678.8874   22433673.754
        42.9004         40.0004
  -3152167.40546  -2183163.83545  24659702.2084   24659705.7434   24659702.310
        37.5004         35.5004
 -21934485.89047 -17081581.63147  20725988.9234   20725989.0654   20725989.821
        47.5004         44.5004
 -20286127.92247 -15769156.15047  21075818.1884   21075819.1024   21075818.559
        46.5004         43.5004
 -17962319.28347 -13818909.50146  21576641.8754   21576644.0514   21576642.228
        44.2004         41.4004
 -17548902.24347 -13617603.72047  21037821.1034   21037822.9804   21037821.508
        46.0004         43.0004
 14 10 27  0 13 30.0000000  0  8G27G19G24G15G22G18G21G14
 -11052778.44347  -8589996.07146  22691610.6014   22691616.3034   22691610.194
        42.3004         39.5004
  -9083042.29546  -7047224.81646  23169127.2934   23169131.1884   23169128.234
        40.6004         37.9004
 -12764759.51447  -9930758.16346  22436056.6604   22436062.4204   22436056.451
        42.7004         39.9004
  -3047861.58146  -2101886.54445  24679550.8594   24679555.3034   24679551.421
        38.0004         35.9004
 -21960369.96947 -17101751.00047  20721063.4304   20721063.3334   20721064.240
        47.7004         44.7004
 -20259058.01247 -15748062.68047  21080968.9774   21080969.9174   21080969.910
        46.5004         43.5004
 -17895700.38647 -13766998.69746  21589319.6254   21589320.5344   21589319.743
        44.2004         41.4004
 -17601148.08747 -13658314.68947  21027878.9744   21027881.2764   21027879.472
        45.8004         43.0004
 14 10 27  0 14  0.0000000  0  8G27G19G24G15G22G18G21G14
 -11009340.83347  -8556148.60846  22699876.4354   22699882.6424   22699876.526
        42.3004         39.7004
  -9092115.30746  -7054294.66346  23167400.4384   23167404.0024   23167401.925
        40.6004         37.9004
 -12751650.03447  -9920542.93346  22438551.3654   22438556.6054   22438551.277
        42.7004         40.0004
  -2943539.99946  -2020596.97046  24699403.3284   24699406.1874   24699402.354
        38.3004         36.2004
 -21986046.53847 -17121758.67047  20716177.4094   20716177.2294   20716178.215
        47.7004         44.7004
 -20231791.61947 -15726816.10747  21086157.6924   21086158.9574   21086158.505
        46.5004         43.5004
 -17828671.61747 -13714768.49946  21602074.4154   21602075.8714   21602074.785
        44.2004         41.4004
 -17652973.24447 -13698697.85047  21018017.0694   21018019.2164   21018017.528
        45.8004         43.0004
 14 10 27  0 14 30.0000000  0  8G27G19G24G15G22G18G21G14
 -10965428.33247  -8521931.09846  22708231.7984   22708238.3714   22708232.204
        42.2004         39.5004
  -9100614.37346  -7060917.27146  23165783.6754   23165787.5284   23165784.723
        40.6004         37.9004
 -12737952.76147  -9909869.67846  22441158.4414   22441163.3054   22441157.757
        42.9004         40.0004
  -2839204.39046  -1939296.49746  24719256.7834   24719260.5174   24719257.022
        38.7004         36.6004
 -22011514.85447 -17141604.06947  20711330.5954   20711330.7714   20711331.705
        47.7004         44.7004
 -20204328.59647 -15705416.31447  21091384.2954   21091385.0474   21091384.581
        46.5004         43.5004
 -17761233.65847 -13662219.45846  21614907.7394   21614909.2124   21614907.801
        44.2004         41.4004
 -17704377.07947 -13738752.70347  21008235.0194   21008236.7764   21008235.494
        45.8004         42.8004
 14 10 27  0 15  0.0000000  0  8G27G19G24G15G22G18G21G14
 -10921043.15847  -8487345.27046  22716678.0264   22716684.5384   22716678.717
        42.2004         39.3004
  -9108539.60746  -7067092.74146  23164276.0904   23164277.6144   23164277.041
        40.6004         37.9004
 -12723667.79147  -9898738.47946  22443875.8544   22443880.7054   22443876.156
        42.9004         40.0004
  -2734856.27746  -1857986.24146  24739114.7254   24739117.4664   24739113.764
        38.7004         36.2004
 -22036774.52747 -17161286.88747  20706524.1094   20706523.6484   20706524.898
        47.7004         44.7004
 -20176668.38447 -15683862.87547  21096647.8604   21096648.9334   21096648.085
        46.5004         43.5004
 -17693388.56947 -13609353.16246  21627817.8414   21627819.2824   21627818.111
        44.2004         41.2004
 -17755359.38547 -13778479.09647  20998533.6744   20998535.5004   20998533.983
        45.8004         43.0004
 14 10 27  0 15 30.0000000  0  8G27G19G24G15G22G18G21G14
 -10876187.51447  -8452392.83546  22725214.6744   22725221.0794   22725214.200
        42.0004         39.3004
  -9115891.10046  -7072821.13546  23162877.9364   23162878.8794   23162877.926
        40.6004         38.1004
 -12708795.35047  -9887149.51146  22446706.8414   22446711.1474   22446706.372
        42.9004         39.9004
  -2630497.61946  -1776667.80546  24758972.8104   24758976.7484   24758972.675
        38.5004         36.2004
 -22061825.11147 -17180806.77647  20701757.1604   20701756.7064   20701757.883
        47.7004         44.7004
 -20148811.28347 -15662156.01747  21101948.4354   21101949.5704   21101948.869
        46.5004         43.5004
 -17625136.97647 -13556170.13046  21640805.3874   21640808.1394   21640806.133
        44.1004         41.4004
 -17805919.61447 -13817876.59547  20988912.3234   20988914.0654   20988912.445
        45.8004         43.0004
 14 10 27  0 16  0.0000000  0  8G27G19G24G15G22G18G21G14
 -10830863.67647  -8417075.58346  22733839.7664   22733846.3554   22733838.954
        42.0004         39.2004
  -9122668.90146  -7078102.48146  23161587.0144   23161589.2294   23161587.618
        40.6004         37.8004
 -12693335.65447  -9875102.95346  22449649.2004   22449653.1244   22449648.235
        42.9004         40.0004
  -2526129.81246  -1695342.22346  24778833.9024   24778837.9394   24778832.952
        38.5004         36.2004
 -22086665.93747 -17200163.21447  20697029.8024   20697029.8164   20697031.024
        47.7004         44.7004
 -20120757.00847 -15640295.51647  21107287.0994   21107288.3184   21107287.518
        46.3004         43.3004
 -17556480.20547 -13502671.37346  21653870.5214   21653872.4744   21653870.997
        44.1004         41.2004
 -17856057.07147 -13856944.66947  20979370.9544   20979373.4254   20979371.604
        46.0004         43.0004
 14 10 27  0 16 30.0000000  0  8G27G19G24G15G22G18G21G14
 -10785073.92846  -8381395.28846  22742553.5544   22742559.4884   22742552.636
        41.8004         39.0004
  -9128873.37446  -7082937.10046  23160405.6834   23160407.6684   23160407.078
        40.4004         37.9004
 -12677289.06347  -9862599.06446  22452701.8614   22452705.6404   22452701.498
        42.7004         39.9004
  -2421755.00246  -1614011.22045  24798695.9704   24798699.6414   24798695.034
        37.8004         35.3004
 -22111296.72947 -17219355.98947  20692342.8574   20692342.8964   20692343.818
        47.7004         44.7004
 -20092504.96247 -15618280.90747  21112663.0204   21112664.3004   21112663.388
        46.3004         43.3004
 -17487419.34947 -13448857.73846  21667011.7274   21667013.8754   21667012.887
        44.1004         41.2004
 -17905771.63247 -13895683.21447  20969910.6244   20969912.6424   20969911.194
        46.0004         43.0004
 14 10 27  0 17  0.0000000  0  8G27G19G24G15G22G18G21G14
 -10738820.56346  -8345353.74346  22751354.4794   22751359.0614   22751354.483
        41.8004         39.2004
  -9134504.75346  -7087325.14046  23159334.3654   23159336.5194   23159335.329
        40.3004         37.6004
 -12660655.65747  -9849637.93146  22455867.4014   22455872.2384   22455866.690
        42.7004         40.0004
  -2317374.36646  -1532675.62345  24818558.7734   24818560.3384   24818557.639
        37.5004         35.0004
 -22135717.02447 -17238384.74347  20687695.6624   20687695.4754   20687696.762
        47.7004         44.7004
 -20064055.13047 -15596112.17647  21118076.7894   21118077.7544   21118077.289
        46.3004         43.3004
 -17417955.18647 -13394729.82746  21680230.7784   21680232.8774   21680231.719
        44.1004         41.2004
 -17955062.58147 -13934091.65847  20960530.8334   20960532.8354   20960531.270
        46.0004         42.8004
 14 10 27  0 17 30.0000000  0  8G27G19G24G15G22G18G21G14
 -10692105.76946  -8308952.64946  22760244.6354   22760249.6204   22760244.268
        41.8004         39.2004
  -9139562.93946  -7091266.52146  23158371.0464   23158374.3904   23158372.751
        40.3004         37.6004
 -12643435.92947  -9836219.90946  22459143.2644   22459147.9524   22459143.625
        42.7004         39.9004
  -2212989.68346  -1451336.91845  24838420.8044   24838424.3634   24838420.624
        36.8004         34.5004
 -22159926.31447 -17257249.08447  20683088.7934   20683088.8384   20683089.726
        47.9004         44.9004
 -20035407.25147 -15573789.12647  21123527.8534   21123529.4214   21123528.829
        46.3004         43.3004
 -17348089.26247 -13340288.86646  21693526.3004   21693528.7194   21693527.082
        44.1004         41.2004
 -18003929.43647 -13972169.64147  20951231.6244   20951233.7324   20951232.302
        46.0004         42.8004
 14 10 27  0 18  0.0000000  0  8G27G19G24G15G22G18G21G14
 -10644932.05746  -8272193.93746  22769220.6274   22769227.3604   22769220.640
        41.8004         39.2004
  -9144048.70246  -7094761.88646  23157517.8724   23157520.4784   23157519.298
        40.3004         37.6004
 -12625630.13647  -9822345.21846  22462531.7894   22462536.7294   22462531.748
        42.7004         39.9004
  -2108602.85746  -1369996.56945  24858284.6444   24858288.9324   24858286.228
        36.3004         34.1004
 -22183924.37747 -17275948.82847  20678522.1504   20678522.1454   20678523.054
        47.9004         44.9004
 -20006561.18047 -15551311.64547  21129017.7084   21129018.7264   21129018.221
        46.3004         43.3004
 -17277823.01147 -13285535.95846  21706897.8404   21706900.1474   21706898.168
        44.1004         41.2004
 -18052371.73247 -14009916.80047  20942013.3034   20942014.9784   20942014.048
        46.0004         43.0004
 14 10 27  0 18 30.0000000  0  8G27G19G24G15G22G18G21G14
 -10597301.67446  -8235079.37246  22778284.2924   22778291.2254   22778284.478
        41.8004         39.2004
  -9147962.11746  -7097811.26646  23156773.5744   23156775.6574   23156774.531
        40.3004         37.8004
 -12607238.88047  -9808014.30946  22466032.1804   22466036.7364   22466031.407
        42.5004         39.7004
  -2004215.59246  -1288655.80645  24878150.6214   24878151.9534   24878150.505
        36.1004         34.0004
 -22207710.50047 -17294483.42747  20673996.0554   20673995.5634   20673996.652
        47.9004         44.9004
 -19977516.04347 -15528679.04947  21134545.2244   21134546.0284   21134545.532
        46.3004         43.5004
 -17207157.36047 -13230471.82646  21720344.6194   21720347.1404   21720345.430
        44.1004         41.2004
 -18100389.33147 -14047333.03047  20932876.4724   20932877.2124   20932876.421
        46.0004         43.2004
 14 10 27  0 19  0.0000000  0  8G27G19G24G15G22G18G21G14
 -10549216.96147  -8197610.79246  22787435.2774   22787441.8754   22787435.248
        42.0004         39.3004
  -9151303.55446  -7100414.94246  23156137.7674   23156140.6744   23156137.812
        40.3004         37.8004
 -12588262.37647  -9793227.37746  22469642.9704   22469647.4424   22469642.327
        42.5004         39.9004
  -1899829.23446  -1207315.76645  24898012.8854   24898017.1144   24898013.759
        36.1004         34.1004
 -22231284.27047 -17312852.55647  20669510.0454   20669509.2074   20669510.930
        47.9004         44.9004
 -19948272.38547 -15505891.75847  21140109.4034   21140111.1074   21140110.242
        46.3004         43.3004
 -17136093.24647 -13175097.21246  21733868.0874   21733869.9364   21733868.087
        43.9004         41.1004
 -18147981.77447 -14084417.97547  20923819.2884   20923821.1134   20923819.805
        46.0004         43.2004
 14 10 27  0 19 30.0000000  0  8G27G19G24G15G22G18G21G14
 -10500680.30047  -8159790.04446  22796671.1504   22796678.0664   22796671.393
        42.0004         39.2004
  -9154073.42446  -7102573.25346  23155610.9264   23155614.0124   23155611.426
        40.4004         37.9004
 -12568700.99347  -9777984.68646  22473365.1444   22473369.9654   22473364.709
        42.5004         39.9004
  -1795445.60846  -1125977.85345  24917878.4504   24917880.7894   24917878.327
        36.3004         34.5004
 -22254645.26047 -17331055.88247  20665064.4784   20665064.1794   20665065.202
        47.9004         44.9004
 -19918829.83947 -15482949.48947  21145712.3974   21145713.0614   21145712.923
        46.3004         43.3004
 -17064632.35247 -13119413.41946  21747466.3164   21747468.5454   21747466.774
        43.9004         40.9004
 -18195148.83347 -14121171.44947  20914843.9204   20914845.8094   20914844.346
        46.2004         43.2004
 14 10 27  0 20  0.0000000  0  8G27G19G24G15G22G18G21G14
 -10451694.08546  -8121618.98246  22805992.9114   22805999.3664   22805993.105
        41.8004         39.2004
  -9156271.84246  -7104286.28146  23155192.5514   23155195.0834   23155193.127
        40.6004         38.1004
 -12548554.99147  -9762286.45846  22477198.5354   22477203.5524   22477198.643
        42.5004         39.5004
  -1691066.44945  -1044643.38045  24937738.1384   24937742.0594   24937740.325
        35.9004         34.0004
 -22277793.07347 -17349093.09747  20660659.0514   20660659.2564   20660660.133
        47.9004         44.7004
 -19889187.99047 -15459851.91747  21151353.1154   21151353.8854   21151353.682
        46.3004         43.2004
 -16992776.17647 -13063421.61446  21761140.1934   21761142.1784   21761140.632
        43.7004         40.7004
 -18241889.81747 -14157592.91847  20905948.9744   20905951.1494   20905949.711
        46.2004         43.3004
 14 10 27  0 20 30.0000000  0  8G27G19G24G15G22G18G21G14
 -10402260.67646  -8083099.46146  22815399.8144   22815405.6404   22815399.887
        41.8004         39.2004
  -9157899.24946  -7105554.35746  23154882.7434   23154885.0704   23154883.665
        40.9004         38.3004
 -12527825.16547  -9746133.29146  22481143.2864   22481148.9424   22481143.445
        42.3004         39.7004
  -1586693.32846   -963313.63445  24957601.8954   24957603.9404   24957601.609
        36.3004         34.6004
 -22300727.20147 -17366963.80247  20656294.9424   20656294.9744   20656295.848
        47.9004         44.9004
 -19859346.76447 -15436598.98547  21157031.2124   21157032.8944   21157031.963
        46.2004         43.3004
 -16920525.67647 -13007122.55046  21774889.2434   21774891.5324   21774889.580
        43.6004         40.6004
 -18288204.51547 -14193682.21747  20897136.0744   20897137.3944   20897136.423
        46.3004         43.3004
 14 10 27  0 21  0.0000000  0  8G27G19G24G15G22G18G21G14
 -10352382.52246  -8044233.38346  22824891.7124   22824897.8164   22824892.014
        41.8004         39.2004
  -9158956.26446  -7106377.97946  23154681.7144   23154684.1394   23154682.818
        40.9004         38.5004
 -12506511.98147  -9729525.57246  22485198.6674   22485203.2544   22485198.979
        42.3004         39.5004
  -1482328.22546   -881990.12145  24977462.6354   24977464.9174   24977461.385
        36.3004         34.3004
 -22323447.20747 -17384667.65747  20651971.1944   20651971.4964   20651972.499
        47.9004         44.9004
 -19829305.43347 -15413190.13147  21162747.8354   21162749.3104   21162748.489
        46.2004         43.2004
 -16847882.44447 -12950517.45146  21788712.3224   21788714.2934   21788713.289
        43.4004         40.6004
 -18334092.69447 -14229439.16147  20888403.2244   20888405.1514   20888403.960
        46.3004         43.3004
 14 10 27  0 21 30.0000000  0  8G27G19G24G15G22G18G21G14
 -10302062.06346  -8005022.66446  22834467.3514   22834472.6724   22834467.729
        41.8004         39.0004
  -9159443.11046  -7106757.30446  23154588.9854   23154591.8124   23154589.746
        41.1004         38.3004
 -12484615.55647  -9712463.38446  22489366.3064   22489370.5104   22489365.664
        42.2004         39.5004
  -1377971.94445   -800673.48045  24997320.7594   24997323.6764   24997319.941
        35.9004         34.0004
 -22345952.51047 -17402204.21847  20647688.9724   20647688.3954   20647689.665
        47.9004         44.9004
 -19799063.53747 -15389624.99447  21168502.6444   21168504.0344   21168503.146
        46.2004         43.2004
 -16774847.73447 -12893607.31546  21802610.6154   21802612.6474   21802611.181
        43.4004         40.6004
 -18379554.14347 -14264863.59447  20879752.6564   20879753.9704   20879752.731
        46.3004         43.5004
 14 10 27  0 22  0.0000000  0  8G27G19G24G15G22G18G21G14
 -10251301.71946  -7965469.16446  22844127.3354   22844132.9904   22844126.705
        41.8004         39.0004
  -9159360.59946  -7106692.97246  23154604.4404   23154608.0564   23154605.212
        41.1004         38.5004
 -12462137.28647  -9694947.81546  22493643.2454   22493647.6494   22493642.838
        42.2004         39.3004
  -1273626.51246   -719365.30645  25017175.0754   25017180.4994   25017176.140
        36.3004         34.5004
 -22368242.46347 -17419572.97147  20643447.1744   20643446.9444   20643448.120
        47.9004         44.9004
 -19768621.75047 -15365904.09947  21174295.5984   21174296.9674   21174295.824
        46.0004         43.0004
 -16701422.39647 -12836392.78746  21816583.0514   21816584.8034   21816583.336
        43.4004         40.4004
 -18424588.30347 -14299955.07647  20871182.7904   20871184.4604   20871183.200
        46.5004         43.5004
 14 10 27  0 22 30.0000000  0  8G27G19G24G15G22G18G21G14
 -10200103.95046  -7925574.81346  22853868.7994   22853876.0114   22853869.415
        41.8004         39.2004
  -9158709.08846  -7106185.26546  23154727.6864   23154731.4494   23154729.308
        40.9004         38.3004
 -12439077.04147  -9676978.74346  22498032.0044   22498035.7954   22498031.191
        42.0004         39.3004
  -1169293.69846   -638066.97045  25037031.2424   25037032.6864   25037029.681
        36.6004         34.5004
 -22390316.20947 -17436773.25147  20639246.6404   20639246.4164   20639247.432
        47.9004         44.9004
 -19737979.29647 -15342026.84347  21180126.6374   21180127.8524   21180127.363
        46.0004         43.2004
 -16627608.10247 -12778875.16246  21830629.0774   21830632.0134   21830629.626
        43.2004         40.4004
 -18469195.09347 -14334713.54047  20862694.0534   20862695.9774   20862694.685
        46.5004         43.5004
 14 10 27  0 23  0.0000000  0  8G27G19G24G15G22G18G21G14
 -10148471.26546  -7885341.57746  22863695.6134   22863701.8254   22863694.626
        41.8004         39.2004
  -9157488.56946  -7105234.19646  23154960.4214   23154963.4474   23154961.412
        40.8004         38.1004
 -12415435.07946  -9658556.37846  22502529.9584   22502535.8974   22502529.939
        41.8004         39.0004
  -1064974.66446   -556779.39245  25056882.6434   25056886.7184   25056881.505
        36.6004         34.6004
 -22412174.27247 -17453805.46647  20635087.0584   20635087.1064   20635088.051
        47.9004         44.9004
 -19707136.12447 -15317993.17847  21185995.6364   21185996.8934   21185996.403
        46.0004         43.0004
 -16553406.20247 -12721055.50546  21844748.3284   21844751.0964   21844749.455
        43.2004         40.4004
 -18513374.00947 -14369138.59947  20854287.0894   20854288.9784   20854287.713
        46.7004         43.7004
 14 10 27  0 23 30.0000000  0  8G27G19G24G15G22G18G21G14
 -10096406.13746  -7844771.37646  22873602.1054   22873608.5744   22873602.254
        41.8004         39.0004
  -9155700.12746  -7103840.58746  23155300.2174   23155303.0394   23155301.521
        40.8004         38.1004
 -12391212.76746  -9639681.79346  22507139.4804   22507144.2694   22507139.341
        41.8004         39.0004
   -960671.18246   -475503.89345  25076728.2814   25076732.5784   25076730.322
        36.4004         34.5004
 -22433815.70647 -17470668.88247  20630968.9634   20630968.6974   20630969.787
        47.9004         44.9004
 -19676091.81947 -15293802.78047  21191903.6884   21191904.3754   21191903.976
        46.0004         43.0004
 -16478818.27147 -12662935.05046  21858942.3074   21858945.5554   21858943.476
        43.0004         40.0004
 -18557124.93447 -14403230.15447  20845961.6954   20845962.8724   20845962.136
        46.7004         43.7004
 14 10 27  0 24  0.0000000  0  8G27G19G24G15G22G18G21G14
 -10043911.07746  -7803866.15846  22883591.2724   22883597.6334   22883591.505
        41.6004         39.0004
  -9153344.18646  -7102004.75246  23155748.6234   23155752.0184   23155749.876
        40.6004         38.1004
 -12366410.53246  -9620355.31546  22511859.6254   22511863.5614   22511859.009
        41.6004         39.2004
   -856384.86646   -394241.77345  25096575.6404   25096579.7324   25096574.810
        36.4004         34.6004
 -22455239.90347 -17487363.02147  20626892.0564   20626891.6204   20626892.757
        47.9004         44.9004
 -19644845.92647 -15269455.30747  21197849.3344   21197850.4724   21197849.748
        46.0004         43.0004
 -16403845.36347 -12604514.61746  21873210.1074   21873212.3954   21873210.700
        43.0004         40.0004
 -18600447.84747 -14436988.20247  20837717.4004   20837719.2624   20837718.014
        46.7004         43.7004
 14 10 27  0 24 30.0000000  0  8G27G19G24G15G22G18G21G14
  -9990988.60546  -7762627.88346  22893662.8474   22893669.5604   22893662.862
        41.6004         39.0004
  -9150421.46046  -7099727.27246  23156304.7644   23156306.9694   23156306.266
        40.6004         37.9004
 -12341028.89746  -9600577.36546  22516688.5954   22516694.0254   22516688.818
        41.8004         39.0004
   -752117.08446   -312994.14345  25116415.3064   25116419.7774   25116416.748
        36.4004         34.3004
 -22476446.50447 -17503887.60647  20622856.3524   20622856.0424   20622857.303
        47.9004         44.9004
 -19613398.50947 -15244950.80847  21203833.1444   21203834.5994   21203834.250
        46.0004         43.2004
 -16328488.99747 -12545795.38546  21887549.5734   21887551.9334   21887550.417
        42.9004         40.0004
 -18643342.17047 -14470412.28347  20829555.4514   20829556.5034   20829555.204
        46.7004         43.9004
 14 10 27  0 25  0.0000000  0  8G27G19G24G15G22G18G21G14
  -9937641.27246  -7721058.56446  22903814.1304   22903820.8314   22903814.435
        41.6004         39.0004
  -9146932.28346  -7097008.40646  23156968.1834   23156971.6344   23156970.042
        40.6004         37.9004
 -12315068.77746  -9580348.64046  22521629.9874   22521633.8134   22521629.013
        41.8004         39.2004
   -647869.71646   -231762.38145  25136253.6664   25136257.9584   25136253.982
        36.1004         34.1004
 -22497434.82647 -17520242.10247  20618862.6434   20618862.1014   20618863.259
        47.9004         44.9004
 -19581749.28047 -15220289.05347  21209856.5134   21209857.1574   21209856.936
        46.0004         43.2004
 -16252750.55947 -12486778.43346  21901962.2564   21901963.0584   21901962.946
        42.9004         40.0004
 -18685807.84447 -14503502.34547  20821474.0034   20821475.5874   20821474.160
        46.7004         43.9004
 14 10 27  0 25 30.0000000  0  8G27G19G24G15G22G18G21G14
  -9883871.60046  -7679160.15346  22914045.7004   22914052.6484   22914046.518
        41.5004         38.6004
  -9142877.53546  -7093848.84446  23157740.4774   23157742.8854   23157742.218
        40.6004         38.1004
 -12288530.40347  -9559669.35446  22526679.6464   22526684.0944   22526678.951
        42.0004         39.3004
   -543643.96346   -150547.42845  25156087.6454   25156091.0914   25156086.397
        36.1004         34.3004
 -22518204.45748 -17536426.18347  20614910.2074   20614909.7194   20614911.037
        48.1004         45.1004
 -19549897.81447 -15195469.72147  21215917.2844   21215918.5244   21215918.147
        46.2004         43.2004
 -16176631.52247 -12427464.91146  21916447.4974   21916448.6434   21916447.699
        42.7004         40.0004
 -18727844.44947 -14536258.07047  20813474.7844   20813475.8934   20813474.909
        46.7004         43.9004
 14 10 27  0 26  0.0000000  0  8G27G19G24G15G22G18G21G14
  -9829682.17446  -7636934.66146  22924358.5084   22924364.7634   22924357.908
        41.5004         38.8004
  -9138257.95746  -7090249.15146  23158619.7184   23158621.8974   23158620.819
        40.8004         38.1004
 -12261414.88447  -9538540.32646  22531839.7574   22531844.0994   22531839.442
        42.3004         39.5004
   -439441.33246    -69350.54545  25175916.4214   25175920.2884   25175916.323
        36.3004         34.3004
 -22538754.85848 -17552439.43447  20610999.7344   20610999.1784   20611000.698
        48.1004         45.1004
 -19517843.64747 -15170492.43247  21222016.9114   21222018.2604   21222017.838
        46.2004         43.3004
 -16100133.33047 -12367855.93046  21931003.7834   21931006.4884   21931004.478
        42.7004         39.9004
 -18769452.16747 -14568679.59847  20805557.0814   20805558.1664   20805557.408
        46.9004         43.9004
 14 10 27  0 26 30.0000000  0  8G27G19G24G15G22G18G21G14
  -9775075.54646  -7594384.08146  22934749.2554   22934755.2374   22934749.648
        41.5004         38.8004
  -9133074.04246  -7086209.71446  23159606.4864   23159609.0934   23159607.131
        40.9004         38.5004
 -12233723.00747  -9516962.20146  22537108.3464   22537113.7134   22537108.916
        42.3004         39.5004
   -335263.59746     11826.96645  25195741.0164   25195744.9864   25195740.951
        36.4004         34.3004
 -22559085.33848 -17568281.32547  20607130.8814   20607130.2364   20607131.641
        48.1004         45.2004
 -19485586.86447 -15145357.25747  21228155.4734   21228156.7034   21228156.041
        46.2004         43.2004
 -16023257.55147 -12307952.72546  21945632.3524   21945636.1804   21945633.735
        42.5004         39.7004
 -18810630.78647 -14600766.77447  20797720.9574   20797722.5804   20797721.493
        46.9004         43.9004
 14 10 27  0 27  0.0000000  0  8G27G19G24G15G22G18G21G14
  -9720054.30246  -7551510.42946  22945220.5054   22945226.6114   22945220.095
        41.5004         38.8004
  -9127326.75946  -7081731.29946  23160700.2514   23160703.0124   23160701.096
        41.1004         38.5004
 -12205455.41047  -9494935.46546  22542488.3464   22542492.9454   22542487.962
        42.2004         39.5004
   -231112.14346     92983.99545  25215559.0754   25215565.5224   25215559.786
        36.1004         34.1004
 -22579195.56548 -17583951.59447  20603304.0154   20603303.4624   20603304.963
        48.1004         45.2004
 -19453127.21947 -15120064.01347  21234331.8674   21234332.9304   21234332.747
        46.2004         43.2004
 -15946005.49047 -12247756.31446  21960334.0214   21960337.0164   21960334.535
        42.5004         39.7004
 -18851380.30447 -14632519.58547  20789966.2104   20789968.2074   20789966.737
        46.9004         43.9004
 14 10 27  0 27 30.0000000  0  8G27G19G24G15G22G18G21G14
  -9664621.05646  -7508315.72846  22955767.9894   22955775.2224   22955768.569
        41.5004         38.8004
  -9121016.65946  -7076814.30646  23161900.7974   23161903.2534   23161901.945
        41.3004         38.8004
 -12176613.17047  -9472460.95646  22547976.1404   22547980.8864   22547976.082
        42.0004         39.2004
   -126988.39446    174119.46245  25235374.9874   25235377.9324   25235374.059
        36.1004         34.5004
 -22599084.83348 -17599449.68347  20599519.0014   20599518.8284   20599519.997
        48.1004         45.1004
 -19420464.34947 -15094612.40947  21240548.0374   21240548.2674   21240548.411
        46.0004         43.2004
 -15868378.49847 -12187267.76146  21975106.0994   21975108.3684   21975106.602
        42.5004         39.9004
 -18891700.09847 -14663937.53447  20782293.5124   20782295.1844   20782293.909
        46.7004         43.7004
 14 10 27  0 28  0.0000000  0  8G27G19G24G15G22G18G21G14
  -9608778.43846  -7464802.02346  22966395.1904   22966401.4234   22966394.950
        41.5004         38.8004
  -9114144.38846  -7071459.26846  23163209.4624   23163210.8264   23163209.971
        41.5004         38.6004
 -12147196.39946  -9449538.75946  22553574.5864   22553578.2194   22553573.948
        41.8004         39.0004
    -22893.75946    255232.20945  25255182.0034   25255184.8504   25255182.227
        36.3004         34.5004
 -22618752.92548 -17614775.42747  20595776.3784   20595775.8724   20595777.229
        48.1004         45.2004
 -19387597.62147 -15069001.94447  21246802.0014   21246803.2644   21246802.730
        46.0004         43.0004
 -15790378.55747 -12126488.59346  21989948.3374   21989950.3884   21989949.217
        42.5004         39.5004
 -18931590.49847 -14695020.88847  20774702.6284   20774703.6904   20774702.973
        46.7004         43.7004
 14 10 27  0 28 30.0000000  0  8G27G19G24G15G22G18G21G14
  -9552529.03446  -7420971.35946  22977099.6284   22977105.6354   22977099.190
        41.5004         38.8004
  -9106710.78046  -7065666.82446  23164624.1054   23164626.4754   23164624.206
        41.3004         38.6004
 -12117206.69246  -9426170.11546  22559280.9264   22559285.0474   22559280.498
        41.8004         39.0004
     81170.18846    336321.09945  25274984.9244   25274985.8344   25274983.801
        36.1004         34.1004
 -22638199.01848 -17629928.18647  20592075.9904   20592075.4364   20592076.579
        48.2004         45.2004
 -19354526.96447 -15043232.57847  21253095.5654   21253096.0854   21253095.816
        46.0004         43.0004
 -15712006.78647 -12065419.69746  22004862.5194   22004864.0244   22004862.772
        42.5004         39.7004
 -18971051.29147 -14725769.48747  20767193.3904   20767194.7844   20767193.890
        46.7004         43.7004
 14 10 27  0 29  0.0000000  0  8G27G19G24G15G22G18G21G14
  -9495875.56646  -7376825.82346  22987879.9344   22987886.2874   22987880.008
        41.5004         38.6004
  -9098716.73346  -7059437.68246  23166144.1634   23166146.0044   23166144.855
        41.1004         38.5004
 -12086645.02246  -9402355.78246  22565096.7634   22565100.7084   22565096.465
        41.8004         39.0004
    185201.72246    417384.73645  25294781.6244   25294786.3874   25294780.568
        36.1004         34.3004
 -22657422.83148 -17644907.73847  20588417.8304   20588417.0984   20588418.710
        48.2004         45.2004
 -19321252.30647 -15017304.24647  21259427.4494   21259428.0834   21259427.758
        46.0004         43.0004
 -15633264.73447 -12004062.28146  22019846.5984   22019847.5984   22019847.047
        42.3004         39.7004
 -19010082.11647 -14756183.04547  20759766.2314   20759767.7084   20759766.632
        46.7004         43.9004
 14 10 27  0 29 30.0000000  0  8G27G19G24G15G22G18G21G14
  -9438820.59946  -7332367.43746  22998737.7574   22998743.4944   22998736.988
        41.5004         38.6004
  -9090162.72146  -7052772.18146  23167772.0364   23167775.5244   23167772.975
        41.1004         38.5004
 -12055511.84446  -9378096.12646  22571021.2384   22571025.1244   22571020.449
        41.8004         39.2004
    289199.86446    498422.30745  25314572.7004   25314575.6284   25314572.126
        36.3004         34.6004
 -22676423.81248 -17659713.65347  20584802.0114   20584801.3394   20584802.772
        48.2004         45.2004
 -19287773.23047 -14991216.63047  21265798.3624   21265798.7484   21265798.586
        46.0004         43.0004
 -15554154.04547 -11942417.61346  22034900.7844   22034903.5594   22034901.332
        42.3004         39.5004
 -19048683.16347 -14786261.70947  20752420.8334   20752422.0714   20752421.087
        46.7004         43.9004
 14 10 27  0 30  0.0000000  0  8G27G19G24G15G22G18G21G14
  -9381366.83746  -7287598.30046  23009669.5464   23009676.9454   23009670.045
        41.5004         38.8004
  -9081050.21546  -7045671.51046  23169505.6994   23169509.1454   23169507.095
        40.9004         38.5004
 -12023808.02647  -9353391.82646  22577054.1544   22577058.4554   22577053.859
        42.0004         39.3004
    393163.27346    579432.85045  25334355.7434   25334356.5084   25334355.646
        36.3004         34.0004
 -22695201.15848 -17674345.31647  20581228.6244   20581228.0874   20581229.533
        48.2004         45.2004
 -19254089.48847 -14964969.53647  21272208.0374   21272208.9724   21272208.418
        46.0004         43.2004
 -15474676.00847 -11880486.71246  22050024.9754   22050027.8414   22050025.433
        42.2004         39.5004
 -19086854.21547 -14816005.32347  20745156.9304   20745158.2984   20745157.220
        46.7004         43.7004
 14 10 27  0 30 30.0000000  0  8G27G19G24G15G22G18G21G14
  -9323516.95146  -7242520.49946  23020678.6924   23020684.9584   23020678.443
        41.3004         38.6004
  -9071379.97946  -7038136.24846  23171345.5844   23171347.9394   23171346.918
