     2.10           OBSERVATION DATA    M (MIXED)           RINEX VERSION / TYPE
LoggerServer.exe    NIST                20-Mar-14 00:00     PGM / RUN BY / DATE
The reference is antenna ARP only, mounted on a forced      COMMENT
centering threaded rod that is bolted to a metal tower.     COMMENT
The tower sits on the roof of NIST Building 1.              COMMENT
Signal Strengh values S1,S2 are in dBHz                     COMMENT
NIST                                                        MARKER NAME
49507M002                                                   MARKER NUMBER
NIST                NIST                                    OBSERVER / AGENCY
SWU04029169         NOV OEM4-G2         2.200-L1L2W         REC # / TYPE / VERS
04230007            NOV702          NONE                    ANT # / TYPE
 -1288349.1490 -4721661.0480  4078676.0170                  APPROX POSITION XYZ
        0.0000        0.0000        0.0000                  ANTENNA: DELTA H/E/N
     1     1                                                WAVELENGTH FACT L1/2
     8    C1    L1    D1    S1    P2    L2    D2    S2      # / TYPES OF OBSERV
  2014     3    20     0     0   30.0000000     GPS         TIME OF FIRST OBS
                                                            END OF HEADER
 14  3 20  0  0 30.0000000  0 11G 3G 7G 8G 9G10G13G16G19G23G27G28
  20825213.12349 109437432.81849        -4.35549        48.312    20825216.78345
  85275980.65945        -3.39845        41.028
  20875883.73649 109703646.34949      1407.31249        48.890    20875886.35846
  85483411.90946      1096.60546        43.332
  22955146.50847 120630233.83947      2393.12947        45.267    22955151.20343
  93997676.37443      1864.77343        36.290
  23065984.77247 121212644.89947      3035.25047        43.746    23065991.74243
  94451484.58543      2365.12543        35.177
  23499238.96046 123489384.24446     -1833.10246        43.328    23499245.92643
  96225540.75443     -1428.39543        36.177
  20264671.60649 106491690.92149     -1184.86749        49.387    20264673.30847
  82980662.19147      -923.27747        43.934
  23445776.73046 123208592.66846     -3317.01246        43.071    23445781.85243
  96006781.70843     -2584.69143        34.766
  21640223.88848 113720317.02648      1683.46548        46.835    21640225.12546
  88613290.07546      1311.78946        41.869
  21947639.63348 115335755.41648     -3084.39148        47.137    21947642.59745
  89872061.95445     -2403.42645        39.319
  22135238.11348 116321641.57248      -889.18848        46.558    22135244.16546
  90640331.84846      -692.87546        42.415
  23778194.86145 124955334.58045      2803.70345        40.530    23778203.66043
  97367801.40143      2184.70743        34.794
 14  3 20  0  1  0.0000000  0 11G 3G 7G 8G 9G10G13G16G19G23G27G28
  20825301.40649 109437897.03849       -26.63349        48.449    20825305.24645
  85276342.41845       -20.75845        40.832
  20867869.06849 109661529.62449      1400.46949        48.783    20867871.70247
  85450593.71447      1091.27047        43.645
  22941489.13947 120558465.25647      2391.37547        45.281    22941493.68744
  93941752.90744      1863.40644        36.924
  23048663.61246 121121621.12946      3032.92646        42.968    23048670.09942
  94380557.13242      2363.32042        34.070
  23509742.19046 123544578.78046     -1846.60246        42.302    23509749.37043
  96268549.40543     -1438.91443        36.041
  20271489.28249 106527518.05549     -1203.58649        49.445    20271491.00347
  83008579.42347      -937.86347        43.782
  23464721.53746 123308147.52546     -3319.86346        43.032    23464726.30442
  96084356.84442     -2586.91042        33.531
  21630665.49448 113670088.55048      1665.01648        47.163    21630666.98446
  88574151.11746      1297.41446        41.574
  21965281.68048 115428464.69848     -3096.17248        46.946    21965284.70045
  89944302.88145     -2412.60545        39.212
  22140369.43148 116348607.62048      -908.64848        46.411    22140375.50046
  90661344.35746      -708.03946        42.201
  23762208.92146 124871329.59446      2796.38346        41.954    23762217.97543
  97302343.26143      2179.00043        35.762
 14  3 20  0  1 30.0000000  0 11G 3G 7G 8G 9G10G13G16G19G23G27G28
  20825516.58449 109439028.14049       -48.77049        48.307    20825520.47346
  85277223.82846       -38.00446        41.632
  20859893.13649 109619616.51449      1393.58249        48.795    20859895.87847
  85417934.17947      1085.90647        43.715
  22927841.57547 120486748.69147      2389.58247        45.063    22927846.52243
  93885869.99043      1862.00843        36.333
  23031354.80647 121030665.05347      3030.65647        43.936    23031360.99342
  94309682.42542      2361.55142        33.873
  23520320.40047 123600167.05947     -1859.42247        43.795    23520327.55341
  96311864.86641     -1448.90241        32.124
  20278413.93349 106563907.60549     -1222.40649        49.561    20278415.85047
  83036934.89947      -952.52747        43.936
  23483681.43146 123407782.54046     -3322.64546        42.368    23483686.44943
  96161994.45243     -2589.07843        36.452
  21621213.64848 113620420.13748      1646.01648        46.771    21621215.34046
  88535448.54946      1282.60546        41.844
  21982990.28248 115521523.09948     -3107.66448        47.294    21982992.90744
  90016815.83344     -2421.55944        38.132
  22145611.82048 116376157.56048      -928.00448        46.632    22145617.80446
  90682811.84646      -723.12546        41.247
  23746264.48846 124787542.20946      2789.21546        41.678    23746273.41041
  97237054.68241      2173.41441        32.188
 14  3 20  0  2  0.0000000  0 11G 3G 7G 8G 9G10G13G16G19G23G27G28
  20825858.69949 109440826.04949       -71.03949        48.649    20825862.34345
  85278624.81945       -55.35945        40.834
  20851956.26249 109577907.69049      1386.89549        48.970    20851959.01847
  85385433.83347      1080.69547        43.360
  22914204.17747 120415085.04147      2387.71947        45.052    22914209.32144
  93830028.28444      1860.55944        37.174
  23014059.00847 120939777.31647      3028.39847        43.428    23014065.27142
  94238860.94342      2359.79342        32.987
  23530973.33947 123656146.76747     -1872.49647        44.122    23530980.10043
  96355485.34043     -1459.09443        35.603
  20285445.40949 106600858.91349     -1241.18849        49.213    20285447.58947
  83065728.10447      -967.16447        43.798
  23502656.23246 123507495.63146     -3325.03946        42.740    23502661.55042
  96239692.88242     -2590.94542        34.292
  21611868.82848 113571313.82148      1627.50048        46.848    21611870.56546
  88497183.98246      1268.18046        41.495
  22000764.75248 115614928.48248     -3119.23848        46.911    22000767.24845
  90089599.16245     -2430.57845        38.993
  22150965.43248 116404290.49648      -947.50848        46.682    22150971.45046
  90704733.62746      -738.32046        41.706
  23730361.56146 124703973.34346      2781.95346        41.968    23730370.09442
  97171936.34642      2167.75842        33.359
 14  3 20  0  2 30.0000000  0 11G 3G 7G 8G 9G10G13G16G19G23G27G28
  20826327.69249 109443291.02849       -93.24649        48.297    20826331.32546
  85280545.60746       -72.66446        41.288
  20844058.44649 109536403.77149      1380.00849        48.676    20844061.13247
  85353093.14647      1075.32847        44.034
  22900576.94547 120343474.70347      2386.19947        44.930    22900582.32044
  93774228.14244      1859.37144        37.758
  22996776.80447 120848958.95247      3026.39147        43.581    22996782.37143
  94168093.49243      2358.22343        35.204
  23541700.24747 123712515.28847     -1885.18447        43.911    23541706.97844
  96399408.78844     -1468.98044        37.363
  20292583.69749 106638371.37449     -1259.77049        49.338    20292586.03247
  83094958.58647      -981.64147        43.987
  23521645.53546 123607284.82346     -3327.74246        42.690    23521651.16643
  96317450.61843     -2593.05143        35.170
  21602631.48548 113522772.22348      1608.68048        46.736    21602633.17746
  88459359.44646      1253.51246        41.982
  22018604.82548 115708678.78848     -3130.74248        47.260    22018607.35844
  90162651.26644     -2439.54344        38.772
  22156429.74448 116433005.48348      -966.93048        46.455    22156435.93446
  90727108.95146      -753.45346        42.119
  23714500.52345 124620623.62145      2774.82845        40.653    23714508.59843
  97106988.77843      2162.20743        35.260
 14  3 20  0  3  0.0000000  0 11G 3G 7G 8G 9G10G13G16G19G23G27G28
  20826923.59149 109446422.90249      -115.56249        48.132    20826927.45546
  85282986.05946       -90.05146        41.753
  20836199.70649 109495106.11549      1373.13349        48.700    20836202.50947
  85320913.19447      1069.96947        43.413
  22886960.07048 120271918.09048      2384.28548        45.876    22886965.63044
  93718469.87044      1857.88344        38.050
  22979508.07146 120758211.04146      3023.79346        42.937    22979513.82843
  94097380.97843      2356.20343        36.088
  23552500.78047 123769270.03847     -1898.11347        44.034    23552507.08144
  96443633.22944     -1479.05144        36.747
  20299828.74249 106676444.65349     -1278.42249        49.338    20299831.18947
  83124626.06647      -996.17647        43.642
  23540649.15846 123707148.12946     -3329.93446        42.742    23540654.63943
  96395266.10543     -2594.75843        34.637
  21593502.07148 113474797.10448      1589.67648        47.023    21593503.88746
  88421976.33346      1238.70746        42.547
  22036510.41948 115802771.85448     -3142.05548        47.446    22036512.89644
  90235970.45844     -2448.35944        37.989
  22162004.64348 116462301.58848      -986.19548        46.632    22162010.93746
  90749937.08146      -768.46946        41.859
  23698680.96045 124537494.20445      2767.26645        40.553    23698689.15943
  97042212.89343      2156.32043        36.298
 14  3 20  0  3 30.0000000  0 11G 3G 7G 8G 9G10G13G16G19G23G27G28
  20827646.37749 109450221.65449      -137.65649        48.101    20827650.39045
  85285946.16045      -107.27045        41.005
  20828380.32949 109454015.62749      1366.16449        48.681    20828383.14347
  85288894.66547      1064.53947        43.397
  22873353.84748 120200415.59948      2382.42648        46.522    22873358.99844
  93662753.74744      1856.43444        38.218
  22962252.80947 120667534.52547      3021.34847        44.125    22962258.99144
  94026724.10344      2354.29744        38.068
  23563373.92047 123826408.09847     -1910.87547        44.867    23563379.89142
  96488156.31042     -1488.99642        33.273
  20307180.41549 106715078.13749     -1297.10249        49.270    20307182.92047
  83154730.07947     -1010.73047        43.629
  23559666.30246 123807083.32146     -3332.05146        42.333    23559671.50043
  96473137.60543     -2596.40643        35.397
  21584480.94548 113427390.74948      1570.64148        47.125    21584483.17046
  88385036.40546      1223.87146        42.416
  22054480.40248 115897205.54948     -3153.59848        47.109    22054483.07544
  90309555.05444     -2457.35244        37.796
  22167690.03148 116492177.81548     -1005.45748        46.857    22167696.07446
  90773217.27146      -783.47746        42.042
  23682903.72846 124454585.56446      2759.89146        42.538    23682911.75442
  96977608.97142      2150.57042        33.070
 14  3 20  0  4  0.0000000  0 11G 3G 7G 8G 9G10G13G16G19G23G27G28
  20828496.06649 109454687.28049      -160.00849        48.268    20828500.12946
  85289425.88046      -124.68446        41.887
  20820600.52849 109413133.04449      1359.19549        48.785    20820603.27546
  85257038.14346      1059.10946        43.070
  22859758.08048 120128967.79048      2380.63748        46.294    22859762.70744
  93607080.21844      1855.03944        37.040
  22945011.59947 120576930.37447      3018.87147        44.081    22945017.66243
  93956123.58143      2352.36343        36.571
  23574319.15547 123883926.87347     -1923.54747        44.529    23574325.49343
  96532976.06343     -1498.87543        35.179
  20314638.55949 106754271.38949     -1315.78149        49.220    20314641.19047
  83185270.26547     -1025.28947        43.897
  23578696.68146 123907088.90646     -3334.53546        42.786    23578701.88742
  96551063.94042     -2598.34442        34.026
  21575568.38048 113380555.43648      1551.73848        46.938    21575570.76346
  88348541.45146      1209.14846        41.528
  22072515.18348 115991977.68348     -3164.66048        47.741    22072517.72744
  90383403.37944     -2465.97344        37.560
  22173485.35248 116522633.17248     -1024.85248        46.046    22173491.62646
  90796948.72446      -798.59046        41.932
  23667168.78946 124371898.64646      2752.59046        41.361    23667176.66642
  96913177.86642      2144.87942        32.643
 14  3 20  0  4 30.0000000  0 11G 3G 7G 8G 9G10G13G16G19G23G27G28
  20829472.64549 109459819.26949      -182.28549        48.350    20829476.59046
  85293424.87146      -142.04346        41.782
  20812860.48149 109372459.20049      1352.21549        48.933    20812863.17846
  85225344.26546      1053.67246        43.287
  22846172.51747 120057575.08947      2378.90247        45.397    22846177.18544
  93551449.63944      1853.69144        37.571
  22927784.30447 120486399.60447      3016.40247        44.187    22927790.31544
  93885580.27644      2350.44544        37.287
  23585336.37347 123941823.26847     -1936.19547        43.346    23585342.81942
  96578090.11742     -1508.71942        32.670
  20322203.19749 106794023.81549     -1334.27349        49.334    20322205.78247
  83216246.16747     -1039.69547        43.718
  23597739.95346 124007162.84446     -3336.89846        41.836    23597745.30443
  96629043.55043     -2600.18443        35.839
  21566764.87948 113334293.30248      1532.48848        47.011    21566766.90346
  88312493.10946      1194.14546        41.428
  22090613.80348 116087085.88348     -3175.84048        47.173    22090616.32044
  90457513.56844     -2474.68844        38.156
  22179390.67948 116553666.63348     -1044.08248        46.542    22179397.03946
  90821130.64946      -813.57446        41.426
  23651476.49047 124289434.51047      2745.23847        43.757    23651484.10242
  96848920.33242      2139.15642        33.844
 14  3 20  0  5  0.0000000  0 11G 3G 7G 8G 9G10G13G16G19G23G27G28
  20830576.11849 109465617.99349      -204.45349        48.351    20830579.87246
  85297943.36846      -159.31646        41.714
  20805160.41949 109331995.22749      1345.30949        48.867    20805163.04147
  85193813.92847      1048.28947        43.625
  22832597.29147 119986237.90847      2376.90247        44.852    22832602.20944
  93495862.33544      1852.12944        37.648
  22910570.88547 120395942.98247      3014.16447        43.575    22910576.81243
  93815094.73643      2348.69943        36.087
  23596424.69046 124000094.94246     -1948.59046        43.280    23596431.40441
  96623496.51141     -1518.38741        32.112
  20329874.17049 106834334.50449     -1353.06249        49.260    20329876.57747
  83247657.07947     -1054.33647        43.817
  23616795.94346 124107303.04346     -3338.72346        42.350    23616801.35443
  96707074.77543     -2601.60543        35.363
  21558070.92048 113288606.37448      1513.32448        47.302    21558072.82746
  88276892.98846      1179.21146        41.507
  22108775.83448 116182527.96348     -3187.00448        47.016    22108778.67544
  90531883.92844     -2483.38744        37.784
  22185405.78348 116585277.14548     -1063.22748        45.883    22185411.98246
  90845762.22946      -828.49246        41.548
  23635826.60746 124207193.77246      2737.71546        41.923    23635834.03842
  96784836.86642      2133.28542        33.669
 14  3 20  0  5 30.0000000  0 11G 3G 7G 8G 9G10G13G16G19G23G27G28
  20831806.44749 109472083.03449      -226.64149        48.085    20831810.12346
  85302981.09346      -176.60546        41.644
  20797500.52949 109291742.07249      1338.24649        48.810    20797503.14646
  85162447.85646      1042.78546        43.331
  22819032.51047 119914956.79547      2375.10547        45.256    22819037.68044
  93440318.72644      1850.73044        37.720
  22893371.49447 120305561.59547      3011.44947        43.843    22893377.45343
  93744667.82143      2346.58243        35.492
  23607583.72546 124058739.35846     -1960.94146        42.002    23607591.13643
  96669193.37643     -1528.00843        36.370
  20337651.14249 106875202.61949     -1371.58649        49.282    20337653.59947
  83279502.34147     -1068.77047        43.541
  23635864.37446 124207507.60246     -3341.09446        42.630    23635869.46142
  96785156.15442     -2603.45342        33.822
  21549487.02548 113243496.71348      1494.01248        47.636    21549488.83946
  88241742.67946      1164.16046        42.000
  22127000.77948 116278301.95348     -3198.02348        46.926    22127003.72844
  90606512.90544     -2491.96944        38.351
  22191530.65648 116617463.65848     -1082.34448        46.761    22191536.72245
  90870842.61845      -843.38745        41.075
  23620218.96245 124125177.23145      2730.15245        39.897    23620226.49042
  96720928.10142      2127.39542        32.716
 14  3 20  0  6  0.0000000  0 11G 3G 7G 8G 9G10G13G16G19G23G27G28
  20833163.55149 109479214.17949      -248.78949        48.654    20833166.99645
  85308537.86045      -193.86345        41.003
  20789880.85149 109251700.52549      1331.14549        48.745    20789883.56046
  85131246.68446      1037.25446        43.264
  22805478.75448 119843732.07448      2373.09448        45.746    22805484.01444
  93384819.03944      1849.16444        37.078
  22876186.65546 120215256.39246      3008.92646        43.096    22876192.50342
  93674300.25742      2344.61742        34.250
  23618813.92846 124117753.54046     -1973.28546        42.314    23618821.51943
  96715178.36943     -1537.62943        34.629
  20345534.06049 106916627.83049     -1390.10249        49.400    20345536.58247
  83311781.71147     -1083.19947        43.607
  23654944.98946 124307774.51946     -3343.10246        43.253    23654949.65943
  96863286.15743     -2605.01643        34.829
  21541013.21648 113198966.44148      1474.68448        47.214    21541015.38246
  88207043.84746      1149.10246        42.750
  22145288.82148 116374405.42848     -3209.04748        46.958    22145291.65944
  90681398.64744     -2500.55944        38.249
  22197765.26448 116650225.04948     -1101.74248        46.863    22197771.15146
  90896370.98846      -858.50446        41.779
  23604654.02746 124043385.55246      2722.75046        42.407    23604661.95742
  96657194.57542      2121.62942        34.394
 14  3 20  0  6 30.0000000  0 11G 3G 7G 8G 9G10G13G16G19G23G27G28
  20834647.32849 109487011.39749      -271.14849        48.414    20834650.62245
  85314613.63145      -211.28945        40.931
  20782301.68049 109211871.51949      1324.14849        48.890    20782304.25547
  85100211.11347      1031.80147        43.602
  22791935.97748 119772564.30548      2371.23448        45.739    22791941.12944
  93329363.72244      1847.71544        37.995
  22859016.71047 120125028.51447      3006.44947        43.747    22859022.14642
  93603992.94542      2342.68442        34.067
  23630113.89946 124177134.66246     -1985.29346        41.263    23630120.86443
  96761449.30243     -1546.98843        35.279
  20353522.94049 106958609.19349     -1408.64849        49.562    20353525.42547
  83344494.45047     -1097.65247        43.551
  23674036.94646 124408102.11146     -3345.33246        42.879    23674041.37843
  96941463.41943     -2606.75443        34.557
  21532650.05348 113155017.64548      1455.23448        47.327    21532652.57546
  88172798.10746      1133.94546        42.560
  22163639.03248 116470836.29048     -3219.91848        46.284    22163642.07145
  90756539.48745     -2509.03145        39.197
  22204108.93248 116683560.19348     -1120.60948        46.768    22204114.49046
  90922346.43246      -873.20746        41.512
  23589132.46446 123961819.52546      2715.28946        42.441    23589140.63042
  96593636.84442      2115.81242        33.108
 14  3 20  0  7  0.0000000  0 11G 3G 7G 8G 9G10G13G16G19G23G27G28
  20836257.61649 109495474.56249      -293.23449        48.021    20836261.05746
  85321208.32646      -228.49646        41.172
  20774763.21049 109172256.19749      1316.80949        48.855    20774765.56647
  85069342.06147      1026.08247        43.665
  22778404.38548 119701454.27948      2369.23448        45.761    22778408.98844
  93273953.38844      1846.15244        37.517
  22841861.45746 120034878.90746      3004.03146        43.329    22841867.00643
  93533746.61643      2340.80143        34.755
  23641483.24747 124236880.25847     -1997.68447        43.765    23641490.26942
  96808004.20842     -1556.64542        32.264
  20361617.48849 107001146.08849     -1427.16049        49.446    20361619.89446
  83377640.06346     -1112.07446        43.301
  23693140.06347 124508488.44147     -3347.15247        43.514    23693144.38343
  97019686.45543     -2608.17643        34.504
  21524397.87248 113111652.12648      1435.80548        47.684    21524400.48346
  88139006.87946      1118.80546        42.822
  22182051.02548 116567592.23648     -3230.66448        46.660    22182054.23844
  90831933.62044     -2517.40244        38.630
  22210561.56948 116717468.00548     -1139.85948        46.933    22210566.69345
  90948768.11645      -888.20745        40.938
  23573654.28846 123880480.44446      2707.47746        42.982    23573662.23343
  96530255.96543      2109.72343        35.525
 14  3 20  0  7 30.0000000  0 11G 3G 7G 8G 9G10G13G16G19G23G27G28
  20837994.53149 109504602.83649      -315.37549        48.254    20837998.20846
  85328321.27846      -245.75046        41.340
  20767265.48449 109132855.36549      1309.78949        48.842    20767267.70247
  85038640.14047      1020.61347        43.607
  22764883.74348 119630402.08348      2367.69948        45.851    22764888.12344
  93218588.14444      1844.95744        38.267
  22824721.47547 119944808.78147      3000.99247        43.913    22824727.63843
  93463562.25843      2338.43843        35.272
  23652921.82547 124296987.13747     -2009.44947        44.305    23652928.26942
  96854840.68742     -1565.81242        32.792
  20369817.63249 107044237.95649     -1445.66449        49.353    20369819.98747
  83411218.12347     -1126.49647        43.440
  23712253.91646 124608931.54246     -3349.12946        42.789    23712257.99242
  97097953.75042     -2609.71542        33.292
  21516257.01548 113068871.95848      1416.27348        47.506    21516259.41446
  88105671.74746      1103.58646        43.008
  22200524.61948 116664671.00248     -3241.32048        47.010    22200527.82044
  90907579.29744     -2525.70744        38.044
  22217122.71948 116751947.30548     -1158.84848        46.609    22217127.90646
  90975635.09246      -903.00046        41.834
  23558219.38146 123799368.53146      2700.13746        43.256    23558226.48441
  96467052.05641      2104.00841        31.188
 14  3 20  0  8  0.0000000  0 11G 3G 7G 8G 9G10G13G16G19G23G27G28
  20839858.10249 109514395.97049      -337.57449        48.262    20839861.98846
  85335952.29646      -263.04746        41.416
  20759808.72849 109093669.87249      1302.59449        49.122    20759811.01747
  85008106.02547      1015.00447        43.416
  22751373.82648 119559408.31548      2365.52348        45.764    22751378.35144
  93163268.41844      1843.26244        37.223
  22807597.19848 119854819.12248      2998.37548        45.583    22807603.27843
  93393440.56943      2336.39543        36.053
  23664428.23947 124357452.84747     -2021.40247        43.854    23664434.64742
  96901956.74942     -1575.12142        33.842
  20378123.19349 107087883.59949     -1464.08249        49.426    20378125.53347
  83445227.69347     -1140.84847        43.404
  23731378.04546 124709429.45246     -3350.95746        41.640    23731382.26043
  97176263.71143     -2611.14143        34.517
  21508227.84348 113026679.24148      1396.55948        47.540    21508230.12846
  88072794.37746      1088.22346        42.392
  22219059.32548 116762070.46448     -3251.89148        47.589    22219062.69444
  90983474.88444     -2533.94544        37.754
  22223792.47748 116786996.90448     -1177.80148        46.787    22223797.56545
  91002946.47845      -917.77045        41.103
  23542827.62846 123718484.88346      2692.30946        42.426    23542834.82341
  96404026.08441      2097.90641        31.376
 14  3 20  0  8 30.0000000  0 11G 3G 7G 8G 9G10G13G16G19G23G27G28
  20841848.28349 109524853.89249      -359.57449        48.129    20841852.27546
  85344101.35446      -280.19146        41.631
  20752393.15149 109054700.90549      1295.41449        48.976    20752395.60747
  84977740.63547      1009.41047        44.010
  22737875.16848 119488473.84348      2363.51648        45.895    22737879.89544
  93107994.89644      1841.69944        38.407
  22790488.57147 119764910.99647      2995.59847        44.615    22790494.21544
  93323382.39844      2334.23044        37.503
  23676002.27846 124418274.47346     -2033.12146        43.164    23676008.23942
  96949350.15342     -1584.25842        34.232
  20386534.00549 107132082.48649     -1482.50449        49.431    20386536.29647
  83479668.37247     -1155.19947        43.656
  23750512.33346 124809980.31446     -3352.79746        42.295    23750516.59443
  97254614.96743     -2612.57043        35.386
  21500310.80948 112985075.78748      1376.92248        47.626    21500313.09846
  88040376.18246      1072.92246        42.401
  22237654.59048 116859788.02748     -3262.47748        46.360    22237657.79744
  91059618.35044     -2542.19144        37.912
  22230570.55548 116822615.58548     -1196.79348        46.704    22230575.75146
  91030701.27946      -932.57046        41.324
  23527479.15346 123637830.02446      2684.57846        41.869    23527485.93941
  96341178.34941      2091.87941        31.160
 14  3 20  0  9  0.0000000  0 11G 3G 7G 8G 9G10G13G16G19G23G27G28
  20843964.91949 109535976.19649      -381.83649        48.495    20843968.71646
  85352768.10246      -297.53946        41.200
  20745019.00149 109015949.44749      1288.06649        48.985    20745021.69347
  84947544.73047      1003.68447        43.961
  22724388.09248 119417598.93448      2361.39148        46.107    22724392.77344
  93052767.77544      1840.04344        37.561
  22773395.29347 119675085.22047      2992.80147        44.858    22773400.84343
  93253388.43643      2332.05543        36.665
  23687643.25346 124479449.44346     -2045.02746        42.227    23687649.77043
  96997018.89543     -1593.53543        34.911
  20395050.00849 107176833.73549     -1500.98049        49.452    20395052.11747
  83514539.45547     -1169.59847        43.404
  23769656.12646 124910582.76446     -3354.20746        41.965    23769661.07242
  97333006.39742     -2613.67642        32.787
  21492506.51048 112944063.52448      1357.13348        47.722    21492508.50246
  88008418.62946      1057.50446        42.710
  22256309.66248 116957821.90748     -3273.02348        46.688    22256313.10744
  91136008.26144     -2550.41444        37.523
  22237456.57748 116858802.12848     -1215.69548        46.756    22237461.96246
  91058898.59146      -947.29746        41.577
  23512174.17146 123557404.84646      2677.04346        42.940    23512181.31442
  96278509.68742      2086.01642        34.305
 14  3 20  0  9 30.0000000  0 11G 3G 7G 8G 9G10G13G16G19G23G27G28
  20846207.76349 109547762.22449      -403.94549        48.454    20846211.38845
  85361952.03045      -314.76645        40.872
  20737686.38649 108977416.62349      1280.87149        48.988    20737689.20147
  84917519.18847       998.07847        43.819
  22710912.62348 119346784.21648      2359.54748        46.720    22710917.16144
  92997587.57444      1838.60544        37.120
  22756317.84747 119585342.95847      2989.77047        43.823    22756323.57444
  93183459.54144      2329.69144        37.059
  23699350.73446 124540974.87846     -2056.68046        41.762    23699358.16842
  97044960.68542     -1602.60942        32.991
  20403670.93149 107222136.73749     -1519.32849        49.585    20403672.92346
  83549840.49046     -1183.89546        43.197
  23788809.38846 125011234.51746     -3356.10246        42.329    23788814.48242
  97411436.23542     -2615.14842        34.178
  21484815.14749 112903644.47349      1337.37549        47.856    21484817.09146
  87976923.33146      1042.10546        42.809
  22275024.77648 117056169.39948     -3283.57048        46.587    22275028.05344
  91212642.56644     -2558.63344        38.012
  22244450.40848 116895555.28948     -1234.58648        46.242    22244455.82045
  91087537.42245      -962.02045        41.048
  23496913.47846 123477209.95746      2669.38346        41.607    23496920.78643
  96216020.40943      2080.03943        34.714
 14  3 20  0 10  0.0000000  0 11G 3G 7G 8G 9G10G13G16G19G23G27G28
  20848576.85749 109560211.72049      -426.07449        48.267    20848580.46345
  85371652.94945      -332.00845        41.034
  20730395.45549 108939102.91049      1273.48849        48.899    20730398.30147
  84887664.38647       992.32447        43.698
  22697448.62548 119276030.19448      2357.42248        46.299    22697452.95044
  92942454.65544      1836.94944        38.203
  22739256.12247 119495685.13347      2987.27347        44.084    22739262.05343
  93113596.43643      2327.74643        35.789
  23711124.58346 124602847.74546     -2068.09046        42.952    23711132.39242
  97093173.22342     -1611.50042        32.951
  20412396.43849 107267990.30249     -1537.64149        49.344    20412398.37746
  83585570.52846     -1198.16446        43.016
  23807971.84046 125111933.57346     -3357.56246        41.748    23807976.89343
  97489902.94743     -2616.28943        35.869
  21477236.92948 112863820.41248      1317.51248        47.527    21477238.81646
  87945891.66546      1026.62946        42.630
  22293798.98648 117154828.24148     -3293.90248        46.461    22293802.12844
  91289519.50644     -2566.68044        37.810
  22251551.56048 116932873.79548     -1253.33648        46.281    22251557.10746
  91116616.76246      -976.62946        41.228
  23481696.29546 123397246.16946      2661.48446        42.615    23481704.21442
  96153711.27742      2073.88742        33.225
 14  3 20  0 10 30.0000000  0 11G 3G 7G 8G 9G10G13G16G19G23G27G28
  20851072.07949 109573324.05349      -448.23449        48.668    20851075.66345
  85381870.37445      -349.27745        40.336
  20723146.45349 108901009.51149      1266.13749        48.820    20723149.26947
  84857981.25647       986.59847        43.916
  22683996.17648 119205337.42648      2355.49248        45.984    22684000.46744
  92887369.48044      1835.44944        38.359
  22722210.66147 119406113.06747      2984.09447        44.050    22722216.80643
  93043800.16943      2325.27043        35.345
  23722964.13646 124665065.47346     -2079.96946        42.760    23722971.79241
  97141654.47441     -1620.76241        31.246
  20421226.59749 107314393.70949     -1555.91449        49.559    20421228.59646
  83621729.00646     -1212.40246        43.032
  23827142.91746 125212678.30746     -3358.94546        41.811    23827148.05142
  97568405.27742     -2617.36342        33.533
  21469772.16348 112824593.06148      1297.57448        47.320    21469773.70146
  87915324.96446      1011.09446        42.839
  22312632.25948 117253796.48448     -3303.94148        46.644    22312635.07444
  91366637.53344     -2574.50444        37.330
  22258760.23248 116970756.32448     -1272.10248        46.355    22258765.70645
  91146135.62445      -991.25045        40.943
  23466523.56046 123317514.17746      2653.62146        42.757    23466531.33242
  96091582.71642      2067.76242        33.320
 14  3 20  0 11  0.0000000  0 11G 3G 7G 8G 9G10G13G16G19G23G27G28
  20853693.22749 109587098.96949      -470.16849        48.452    20853696.93245
  85392604.09145      -366.36745        40.798
  20715939.63549 108863137.40849      1258.66849        49.107    20715942.44447
  84828470.56447       980.77747        43.949
  22670555.24348 119134706.48048      2353.25848        45.948    22670559.72844
  92832332.49344      1833.70744        37.738
  22705182.01747 119316627.53847      2981.48047        44.580    22705188.04043
  92974071.31443      2323.22743        36.402
  23734868.78046 124727625.17446     -2090.91046        42.097    23734876.43743
  97190402.21243     -1629.28943        35.510
  20430161.15749 107361345.84449     -1574.22349        49.189    20430163.34047
  83658315.06247     -1226.67247        43.390
  23846322.25446 125313466.86546     -3360.33646        41.551    23846327.44442
  97646941.72242     -2618.44542        32.767
  21462421.34649 112785964.21349      1277.66049        47.881    21462422.54446
  87885224.63746       995.57446        42.394
  22331523.69648 117353071.62148     -3314.19948        46.392    22331526.83244
  91443994.66944     -2582.49644        37.666
  22266076.07648 117009201.64048     -1290.80148        46.418    22266081.64345
  91176093.00945     -1005.82045        40.874
  23451395.04546 123238014.19646      2646.12546        41.155    23451402.99243
  96029634.95943      2061.92243        35.708
 14  3 20  0 11 30.0000000  0 11G 3G 7G 8G 9G10G13G16G19G23G27G28
  20856440.35849 109601535.83449      -492.35249        48.154    20856444.14845
  85403853.60945      -383.65245        40.508
  20708775.16049 108825487.45249      1251.16849        49.109    20708777.86147
  84799132.97047       974.93447        43.450
  22657126.31548 119064138.12348      2351.18848        46.070    22657130.79144
  92777344.25244      1832.09044        37.760
  22688170.34947 119227229.85347      2978.47747        45.137    22688175.79243
  92904410.91243      2320.89143        35.489
  23746838.54747 124790524.19047     -2102.33247        43.512    23746845.84542
  97239414.34042     -1638.18842        33.781
  20439200.19949 107408846.07149     -1592.53949        49.591    20439202.41346
  83695328.20546     -1240.94146        43.104
  23865509.52246 125414297.56846     -3361.65646        42.455    23865514.89141
  97725511.01141     -2619.47741        30.841
  21455184.81949 112747935.94249      1257.58249        47.917    21455185.80546
  87855592.28546       979.93046        42.662
  22350472.91948 117452651.13948     -3324.35948        46.051    22350476.24344
  91521588.98044     -2590.41844        37.205
  22273499.00848 117048208.32948     -1309.46948        46.665    22273504.51346
  91206487.82646     -1020.36746        41.946
  23436311.13747 123158747.48747      2638.37547        43.741    23436318.39342
  95967868.90942      2055.88342        34.371
 14  3 20  0 12  0.0000000  0 11G 3G 7G 8G 9G10G13G16G19G23G27G28
  20859313.42949 109616634.34849      -514.43849        48.375    20859317.32445
  85415618.70645      -400.86345        40.780
  20701653.22049 108788061.10549      1243.77049        49.155    20701655.83647
  84769969.62147       969.16847        44.069
  22643709.43048 118993632.87948      2349.31248        45.913    22643713.88844
  92722405.19944      1830.63344        38.544
  22671175.65347 119137921.16847      2975.33247        45.383    22671181.03143
  92834819.85443      2318.44143        36.264
  23758872.18046 124853759.46446     -2113.36346        43.051    23758879.19042
  97288688.50142     -1646.78542        33.703
  20448343.35549 107456893.42249     -1610.77349        49.050    20448345.39746
  83732767.67646     -1255.15246        42.911
  23884704.66046 125515168.73846     -3362.74646        41.799    23884710.00641
  97804111.84441     -2620.32441        32.013
  21448062.64548 112710509.80348      1237.42248        47.565    21448063.74846
  87826429.13146       964.22346        42.639
  22369479.78848 117552532.91848     -3334.42648        46.333    22369482.79844
  91599418.85944     -2598.25844        37.120
  22281028.65748 117087775.04348     -1328.12948        46.534    22281034.04445
  91237319.04145     -1034.91045        41.062
  23421271.80646 123079714.78746      2630.49646        43.096    23421278.92641
  95906285.25241      2049.74241        31.261
 14  3 20  0 12 30.0000000  0 11G 3G 7G 8G 9G10G13G16G19G23G27G28
  20862312.19249 109632393.45849      -536.31649        48.558    20862316.34945
  85427898.54045      -417.91045        40.980
  20694573.98749 108750858.98449      1236.35549        49.252    20694576.29247
  84740980.98647       963.39147        43.818
  22630304.76648 118923191.11248      2347.06648        46.222    22630309.45344
  92667515.59444      1828.87944        38.728
  22654198.09247 119048702.50447      2972.52047        44.622    22654203.58344
  92765298.91344      2316.24644        36.989
  23770969.06047 124917328.22747     -2124.48447        43.975    23770976.31342
  97338222.51842     -1655.44542        33.022
  20457590.49949 107505486.81949     -1628.87549        49.738    20457592.34246
  83770632.65246     -1269.25846        42.114
  23903907.04245 125616078.14345     -3364.18445        41.059    23903912.30543
  97882742.46743     -2621.44543        35.534
  21441055.37548 112673687.43948      1217.19948        47.631    21441056.85746
  87797736.45046       948.46546        42.607
  22388544.06748 117652714.86548     -3344.37548        46.744    22388546.90144
  91677482.59844     -2606.00844        38.667
  22288664.28248 117127900.43048     -1346.81648        46.232    22288669.84546
  91268585.57546     -1049.46946        41.907
  23406276.98746 123000916.55146      2622.85946        42.265    23406283.48443
  95844884.25543      2043.79343        35.166
 14  3 20  0 13  0.0000000  0 11G 3G 7G 8G 9G10G13G16G19G23G27G28
  20865436.63149 109648812.62749      -558.28149        48.245    20865440.87846
  85440692.70546      -435.02746        41.117
  20687537.55449 108713882.18249      1228.80549        49.156    20687539.51747
  84712167.91347       957.50847        43.953
  22616912.46448 118852813.52448      2344.87148        45.918    22616917.17045
  92612676.01245      1827.16845        39.550
  22637237.63647 118959574.84647      2969.38347        44.105    22637243.10344
  92695848.91044      2313.80544        36.845
  23783128.97345 124981227.69445     -2135.60245        40.554    23783136.14143
  97388014.24443     -1664.11343        35.787
  20466941.42249 107554625.11749     -1647.04749        49.641    20466943.16646
  83808922.21046     -1283.41846        42.618
  23923116.44545 125717024.38445     -3365.14845        41.039    23923121.65441
  97961401.77241     -2622.19541        30.287
  21434163.48548 112637471.12548      1197.23448        47.517    21434165.15046
  87769516.02546       932.90646        42.549
  22407664.84848 117753194.35448     -3354.23848        46.443    22407667.55143
  91755778.20143     -2613.69943        36.615
  22296405.95748 117168583.07148     -1365.44948        46.312    22296411.73646
  91300286.31146     -1063.98846        42.475
  23391326.59047 122922353.48547      2615.12147        43.618    23391333.33741
  95783666.54941      2037.75841        32.093
 14  3 20  0 13 30.0000000  0 11G 3G 7G 8G 9G10G13G16G19G23G27G28
  20868686.60749 109665891.34149      -580.20749        48.088    20868690.69846
  85454000.82146      -452.11346        41.617
  20680544.15449 108677131.63349      1221.23049        49.066    20680545.84047
  84683531.14547       951.60547        43.343
  22603532.40548 118782500.72948      2342.73448        46.278    22603537.17544
  92557886.92844      1825.50844        38.382
  22620294.28247 118870539.51247      2966.08247        43.896    22620300.44243
  92626470.86443      2311.23443        36.397
  23795351.15847 125045454.65147     -2146.33647        43.725    23795358.35641
  97438061.06641     -1672.48041        31.576
  20476395.77949 107604307.38149     -1665.22349        49.586    20476397.44646
  83847635.64246     -1297.57846        42.834
  23942332.65345 125818005.58145     -3366.80545        41.040    23942337.73842
  98040088.36242     -2623.48842        32.358
  21427387.11148 112601861.93648      1176.79748        47.759    21427388.56346
  87741768.67446       916.98046        41.739
  22426841.45848 117853969.11048     -3363.92648        46.369    22426844.69943
  91834303.85243     -2621.24643        35.825
  22304253.21548 117209821.55648     -1383.87148        46.531    22304259.20146
  91332420.18146     -1078.34446        41.265
  23376421.26646 122844026.38546      2607.00046        42.207    23376428.05843
  95722632.64943      2031.43043        34.713
 14  3 20  0 14  0.0000000  0 11G 3G 7G 8G 9G10G13G16G19G23G27G28
  20872061.93149 109683628.80349      -602.28549        47.950    20872065.92745
  85467822.24145      -469.31645        41.017
  20673593.83549 108640608.35649      1213.68049        48.934    20673595.51446
  84655071.47746       945.72346        43.287
  22590164.74048 118712253.26548      2340.50048        46.331    22590169.69244
  92503148.74044      1823.76244        38.022
  22603368.74547 118781597.45147      2963.15247        44.110    22603375.48944
  92557165.52944      2308.94944        37.984
  23807634.85046 125110006.47646     -2156.92646        42.267    23807641.41442
  97488361.14342     -1680.72342        32.832
  20485953.24549 107654532.70249     -1683.16849        49.749    20485955.04246
  83886772.23246     -1311.56246        42.890
  23961555.25246 125919019.95346     -3367.77046        41.549    23961560.21643
  98118800.76243     -2624.23843        34.727
  21420726.68648 112566861.63248      1156.48448        47.759    21420727.90446
  87714495.78546       901.15246        41.898
  22446074.25048 117955036.67548     -3373.59848        46.143    22446077.42843
  91913057.70443     -2628.78543        36.362
  22312206.20348 117251614.46248     -1402.27748        46.343    22312212.00746
  91364986.06746     -1092.68846        42.143
  23361560.80846 122765935.80946      2598.93046        42.104    23361567.64043
  95661783.09543      2025.14143        34.986
 14  3 20  0 14 30.0000000  0 11G 3G 7G 8G 9G10G13G16G19G23G27G28
  20875562.48949 109702024.28449      -624.16849        48.330    20875566.26945
  85482156.41145      -486.36745        40.446
  20666687.00349 108604313.53649      1206.01649        48.914    20666688.75947
  84626789.82447       939.75047        43.359
  22576809.37648 118642071.91348      2338.21948        46.318    22576814.55144
  92448462.06744      1821.98444        38.533
  22586461.63147 118692750.15747      2959.92647        44.618    22586468.46144
  92487934.00444      2306.43444        38.029
  23819979.99546 125174880.53046     -2167.73846        41.643    23819986.89543
  97538912.23543     -1689.15243        34.548
  20495613.79249 107705299.99949     -1701.32049        48.585    20495615.88047
  83926331.13447     -1325.70747        43.947
  23980783.98746 126020065.71446     -3368.66046        41.593    23980788.81442
  98197537.63042     -2624.93842        33.513
  21414182.50548 112532471.85548      1136.18448        47.599    21414183.49346
  87687698.61646       885.33646        42.251
  22465361.99548 118056394.88248     -3383.49248        46.004    22465365.13344
  91992038.00944     -2636.49644        37.057
  22320264.36648 117293960.27548     -1420.74248        46.597    22320269.98945
  91397982.80645     -1107.07445        40.996
  23346745.52847 122688082.16947      2591.00047        43.575    23346752.38041
  95601118.11541      2018.96141        30.266
 14  3 20  0 15  0.0000000  0 11G 3G 7G 8G 9G10G13G16G19G23G27G28
  20879188.09949 109721077.37649      -646.03949        47.976    20879191.76046
  85497002.98746      -503.41046        41.145
  20659823.85649 108568248.14249      1198.48449        48.954    20659825.72246
  84598686.93346       933.87946        43.255
  22563466.90948 118571957.24048      2335.89848        46.430    22563472.03544
  92393827.34044      1820.17644        38.150
  22569572.62347 118603998.33947      2956.71147        45.235    22569579.06944
  92418776.89744      2303.93044        37.693
  23832385.69246 125240073.75946     -2178.45746        41.659    23832392.55542
  97589712.05842     -1697.50442        33.756
  20505377.32549 107756608.11349     -1719.20749        49.962    20505379.65046
  83966311.46946     -1339.64546        42.411
  24000018.10745 126121141.21445     -3369.85245        41.044    24000023.16043
  98276297.66243     -2625.86743        36.357
  21407754.84949 112498694.37149      1115.69549        47.891    21407755.87646
  87661378.55846       869.37146        41.916
  22484704.88148 118158041.31848     -3392.85948        46.422    22484707.93644
  92071242.92344     -2643.78944        38.228
  22328427.46148 117336857.52048     -1439.12548        46.323    22328432.89146
  91431409.23346     -1121.39846        41.197
  23331975.70547 122610466.34047      2583.28147        43.432    23331982.20942
  95540638.41342      2012.94942        33.838
 14  3 20  0 15 30.0000000  0 11G 3G 7G 8G 9G10G13G16G19G23G27G28
  20882938.66349 109740787.04949      -667.86749        47.895    20882942.57946
  85512361.19146      -520.41846        41.279
  20653004.56249 108532412.96649      1190.57449        48.838    20653006.43046
  84570763.44946       927.71946        43.071
  22550137.32248 118501909.67148      2333.89148        45.895    22550142.40145
  92339244.91245      1818.61345        39.544
  22552702.20647 118515343.20147      2953.71147        45.388    22552708.28244
  92349695.10844      2301.59044        38.195
  23844851.57245 125305583.37745     -2189.12545        40.021    23844858.53841
  97640758.43041     -1705.81641        32.006
  20515243.58149 107808455.93549     -1737.26649        48.973    20515246.13047
  84006712.34547     -1353.71547        43.342
  24019257.66446 126222244.89546     -3370.60946        41.224    24019262.94841
  98355079.69441     -2626.45341        31.695
  21401443.95748 112465530.64848      1095.19148        47.347    21401445.51046
  87635536.77446       853.39546        43.079
  22504102.17648 118259973.59048     -3402.54348        46.305    22504105.53244
  92150670.55544     -2651.33644        37.225
  22336695.07248 117380304.72948     -1457.46148        46.468    22336700.55245
  91465264.18845     -1135.68845        40.938
  23317251.17546 122533088.94546      2575.42246        42.739    23317257.49242
  95480344.52342      2006.82442        32.498
 14  3 20  0 16  0.0000000  0 11G 3G 7G 8G 9G10G13G16G19G23G27G28
  20886814.08349 109761152.60149      -689.91849        48.107    20886818.07145
  85528230.45645      -537.60245        41.055
  20646229.42449 108496809.36749      1182.98849        49.111    20646231.28447
  84543020.40747       921.80547        43.617
  22536820.73048 118431930.30448      2331.57448        46.410    22536825.47945
  92284715.61945      1816.80945        39.308
  22535850.31847 118426785.97047      2950.21547        45.314    22535855.95044
  92280689.59244      2298.86744        37.897
  23857377.35246 125371406.38246     -2199.31646        42.267    23857384.62542
  97692048.93942     -1713.76242        33.189
  20525212.46149 107860842.41449     -1755.18049        49.682    20525215.06746
  84047532.96046     -1367.67646        42.958
  24038502.03446 126323374.75146     -3371.19146        41.211    24038507.18142
  98433882.10242     -2626.90642        33.960
  21395250.08548 112432982.26448      1074.58248        47.421    21395252.02346
  87610174.46446       837.33246        42.726
  22523553.40548 118362189.10048     -3411.78948        46.744    22523556.67443
  92230318.89343     -2658.54343        36.631
  22345067.02848 117424300.39148     -1475.71948        45.770    22345072.68146
  91499546.50746     -1149.91446        41.628
  23302572.20947 122455950.44147      2567.35947        43.620    23302578.46842
  95420236.78342      2000.54342        34.218
 14  3 20  0 16 30.0000000  0 11G 3G 7G 8G 9G10G13G16G19G23G27G28
  20890814.19449 109782173.19249      -711.59049        48.118    20890818.11746
  85544610.14546      -554.48846        41.126
  20639498.63049 108461438.26649      1175.13749        49.147    20639500.48247
  84515458.53147       915.68847        43.757
  22523517.00348 118362019.38448      2329.15248        46.171    22523521.68844
  92230239.66244      1814.92644        38.231
  22519017.18147 118338327.90647      2946.89547        44.348    22519022.56644
  92211761.36844      2296.28144        37.373
  23869962.43946 125437539.98646     -2209.54746        42.439    23869969.58442
  97743581.55042     -1721.73042        33.278
  20535283.63149 107913766.50649     -1773.14849        49.738    20535286.19746
  84088772.48546     -1381.67646        42.534
  24057751.21046 126424529.33946     -3372.35546        42.290    24057756.32143
  98512703.74243     -2627.81243        35.001
  21389173.85149 112401050.89749      1054.01249        47.780    21389175.66046
  87585292.94546       821.30546        42.753
  22543057.79748 118464685.89848     -3421.25048        46.394    22543061.28743
  92310186.38443     -2665.91443        35.961
  22353543.12148 117468842.93948     -1493.87948        46.067    22353548.98545
  91534254.96745     -1164.06645        41.026
  23287938.76846 122379051.69946      2559.29346        42.745    23287945.15343
  95360315.87343      1994.25443        35.264
 14  3 20  0 17  0.0000000  0 11G 3G 7G 8G 9G10G13G16G19G23G27G28
  20894938.85449 109803847.89149      -733.29749        48.395    20894942.50345
  85561499.52745      -571.40245        40.820
  20632812.23649 108426300.56949      1167.40249        49.017    20632814.23347
  84488078.54047       909.66047        44.102
  22510226.26648 118292177.28248      2326.98448        46.364    22510231.06644
  92175817.33244      1813.23044        37.139
  22502203.10047 118249970.17347      2943.63347        44.738    22502208.38344
  92142911.33544      2293.74244        37.869
  23882605.82747 125503981.02547     -2219.74247        43.357    23882613.10942
  97795353.66542     -1729.67642        34.233
  20545456.84449 107967227.03749     -1790.91449        49.183    20545459.38446
  84130430.00846     -1395.52046        43.278
  24077004.76646 126525706.74546     -3372.98846        41.815    24077009.68242
  98591543.18242     -2628.30942        33.508
  21383215.19849 112369737.78949      1033.41049        47.797    21383216.68246
  87560893.18746       805.25046        42.443
  22562615.63248 118567461.16848     -3430.40248        46.553    22562618.98244
  92390270.89944     -2673.04744        38.170
  22362123.05548 117513930.77748     -1512.02748        46.409    22362128.82945
  91569388.34445     -1178.20745        41.072
  23273351.01246 122302393.23646      2551.28146        42.632    23273357.39742
  95300582.21242      1988.01242        33.863
 14  3 20  0 17 30.0000000  0 11G 3G 7G 8G 9G10G13G16G19G23G27G28
  20899187.69749 109826175.80649      -755.18049        48.372    20899191.18645
  85578897.91145      -588.45345        40.394
  20626170.37249 108391397.44349      1159.41449        48.850    20626172.59247
  84460881.32747       903.43847        44.102
  22496948.87348 118222405.24548      2324.42648        46.088    22496953.63145
  92121449.57145      1811.23845        39.088
  22485408.51647 118161713.75947      2940.02347        45.253    22485413.22744
  92074140.23444      2290.93044        37.544
  23895307.45446 125570726.75146     -2229.91446        43.307    23895314.64442
  97847363.26342     -1737.59842        34.130
  20555732.00649 108021222.56949     -1808.75049        49.453    20555734.56446
  84172504.43346     -1409.41846        43.333
  24096262.26546 126626905.38146     -3373.48046        42.048    24096267.01541
  98670399.18241     -2628.68841        30.578
  21377374.42748 112339044.76848      1012.73848        47.267    21377375.70446
  87536976.60446       789.14546        42.538
  22582225.88148 118670512.97448     -3439.66448        46.145    22582229.21444
  92470570.89544     -2680.26644        37.888
  22370806.53548 117559562.35348     -1530.14148        46.384    22370812.26846
  91604945.41146     -1192.32046        41.583
  23258809.02447 122225975.26947      2543.47747        43.847    23258815.28642
  95241035.96342      1981.93042        33.805
 14  3 20  0 18  0.0000000  0 11G 3G 7G 8G 9G10G13G16G19G23G27G28
  20903560.64749 109849156.21849      -776.87149        47.909    20903564.04845
  85596804.73345      -605.35545        40.674
  20619573.26349 108356729.86649      1151.65249        49.206    20619575.70747
  84433867.66147       897.38747        44.120
  22483684.94348 118152703.85748      2322.16448        46.358    22483689.93644
  92067136.89744      1809.48044        38.549
  22468633.53548 118073560.30148      2936.56248        45.646    22468638.02444
  92005449.35544      2288.23044        37.136
  23908066.64046 125637774.33546     -2239.91446        42.833    23908073.33743
  97899608.05443     -1745.39143        35.400
  20566108.58849 108075751.98349     -1826.57449        49.610    20566111.24146
  84214994.85446     -1423.30946        42.891
  24115523.36046 126728123.57846     -3374.10246        41.522    24115528.62543
  98749270.40843     -2629.18043        34.516
  21371651.67748 112308972.95648       992.07448        47.045    21371653.06646
  87513544.08046       773.04346        43.055
  22601887.89247 118773838.65547     -3448.81247        45.390    22601891.65044
  92551084.27344     -2687.39544        37.176
  22379593.08348 117605736.05748     -1548.05548        45.563    22379598.77046
  91640924.92246     -1206.28146        41.151
  23244312.99647 122149798.63347      2535.14147        43.839    23244318.80743
  95181677.72643      1975.43443        34.954
 14  3 20  0 18 30.0000000  0 11G 3G 7G 8G 9G10G13G16G19G23G27G28
  20908057.54449 109872788.14649      -798.53549        48.053    20908060.88845
  85615219.22945      -622.23845        40.434
  20613021.24649 108322298.91149      1143.62549        48.987    20613023.85647
  84407038.38147       891.13347        44.276
  22470434.85748 118083073.74248      2319.77348        46.626    22470439.71044
  92012879.73844      1807.61344        38.854
  22451878.05147 117985510.64047      2933.10547        44.970    22451882.87344
  91936839.35044      2285.53544        37.643
  23920882.43746 125705121.02546     -2249.84446        41.516    23920889.31643
  97952085.88843     -1753.12943        35.387
  20576586.53549 108130814.28049     -1844.28549        49.232    20576589.28946
  84257900.51146     -1437.10946        42.641
  24134788.13646 126829359.83846     -3374.91846        41.609    24134793.10942
  98828155.75042     -2629.80942        34.208
  21366047.53049 112279523.76849       971.23049        47.895    21366049.17346
  87490596.73046       756.80146        42.870
  22621602.10148 118877435.83148     -3457.68848        45.687    22621605.49944
  92631809.24644     -2694.30944        36.833
  22388482.41848 117652450.28848     -1566.12548        45.783    22388488.09245
  91677325.61545     -1220.35945        40.865
  23229863.27347 122073864.04647      2527.18447        43.938    23229868.72842
  95122508.12042      1969.23442        33.962
 14  3 20  0 19  0.0000000  0 11G 3G 7G 8G 9G10G13G16G19G23G27G28
  20912678.40249 109897070.62949      -820.11749        48.159    20912681.60245
  85634140.63545      -639.05545        40.926
  20606514.52249 108288105.75449      1135.79749        49.197    20606517.14547
  84380394.38747       885.03547        44.299
  22457198.41048 118013515.50648      2317.38348        47.035    22457202.99645
  91958678.59345      1805.75045        39.410
  22435142.42347 117897565.94947      2929.78147        44.793    22435147.92544
  91868311.16544      2282.94544        37.193
  23933754.21346 125772763.43146     -2259.63346        43.083    23933761.30642
  98004794.13742     -1760.76242        33.925
  20587165.56549 108186408.00549     -1861.91449        49.239    20587168.46046
  84301220.27446     -1450.84446        42.987
  24154055.94945 126930612.48045     -3375.32445        41.011    24154060.98142
  98907053.81242     -2630.12942        34.374
  21360562.37149 112250698.59749       950.42649        48.127    21360564.06046
  87468135.60646       740.59046        42.912
  22641367.39348 118981302.22348     -3466.66848        46.133    22641370.48644
  92712743.98844     -2701.30544        37.327
  22397474.35548 117699703.36048     -1584.02748        46.380    22397480.36245
  91714146.19445     -1234.30945        41.067
  23215459.39446 121998171.91046      2519.18046        42.761    23215464.13743
  95063527.38743      1962.99643        34.525
 14  3 20  0 19 30.0000000  0 11G 3G 7G 8G 9G10G13G16G19G23G27G28
  20917422.93149 109922002.80849      -841.94549        47.983    20917426.16845
  85653568.31345      -656.06645        40.726
  20600053.17649 108254151.29749      1127.65249        48.944    20600055.87547
  84353936.39747       878.68847        44.757
  22443975.72148 117944029.82948      2315.05548        47.174    22443980.16944
  91904533.98444      1803.93444        38.712
  22418427.07847 117809727.46847      2926.16847        44.712    22418432.72944
  91799865.72844      2280.12944        37.125
  23946682.03646 125840698.86146     -2269.30946        42.008    23946688.94042
  98057730.74342     -1768.30142        32.548
  20597845.66449 108242531.96949     -1879.43849        49.838    20597848.44046
  84344953.19946     -1464.50046        42.204
  24173326.49946 127031879.54946     -3375.82446        41.531    24173331.94842
  98985963.13742     -2630.52042        32.396
  21355196.35549 112222498.94849       929.44549        47.827    21355197.80546
  87446161.90846       724.23846        43.215
  22661182.71848 119085435.11948     -3475.38748        45.637    22661186.42144
  92793886.33544     -2708.10244        37.052
  22406568.63348 117747493.66248     -1601.96548        46.640    22406574.58145
  91751385.38045     -1248.28945        40.738
  23201101.59547 121922722.98747      2510.64847        43.337    23201106.72343
  95004736.23143      1956.35243        36.610
 14  3 20  0 20  0.0000000  0 11G 3G 7G 8G 9G10G13G16G19G23G27G28
  20922290.86649 109947583.24049      -863.37549        48.356    20922294.04445
  85673501.12545      -672.76245        40.784
  20593637.48849 108220436.65849      1119.80949        49.103    20593640.36447
  84327665.27947       872.57447        44.629
  22430767.12848 117874617.44948      2312.48848        47.178    22430771.33844
  91850446.48244      1801.93844        38.027
  22401731.96347 117721996.45247      2922.72347        44.721    22401738.06344
  91731504.04144      2277.44544        37.948
  23959664.97246 125908924.10646     -2278.88746        41.949    23959672.09743
  98110893.16743     -1775.75843        34.863
  20608626.52849 108299184.98649     -1897.27349        49.534    20608629.00246
  84389098.38446     -1478.39846        42.818
  24192599.83145 127133160.07945     -3376.07045        41.071    24192605.18842
  99064882.96542     -2630.70742        33.888
  21349949.39749 112194926.09549       908.60249        47.897    21349951.02246
  87424676.62746       707.99646        43.241
  22681049.07148 119189832.24148     -3484.35948        45.654    22681052.56744
  92875234.62744     -2715.09444        36.916
