     2.11           OBSERVATION DATA    M (MIXED)           RINEX VERSION / TYPE
teqc  2011Oct11                         20130321 00:15:04UTCPGM / RUN BY / DATE
Linux 2.4.20-8|Pentium IV|gcc|Linux|486/DX+                 COMMENT
BIT 2 OF LLI FLAGS DATA COLLECTED UNDER A/S CONDITION       COMMENT
NTUS-01                                                     MARKER NAME
22601M001                                                   MARKER NUMBER
Tan Hua Seng        SLA/DEOS                                OBSERVER / AGENCY
352729              LEICA GRX1200GGPRO  8.10/3.019          REC # / TYPE / VERS
200240              LEIAT504GG      NONE                    ANT # / TYPE
 -1508022.7800  6195576.6820   148799.4690                  APPROX POSITION XYZ
        0.0776        0.0000        0.0000                  ANTENNA: DELTA H/E/N
     1     1                                                WAVELENGTH FACT L1/2
     6    L1    L2    C1    P2    S1    S2                  # / TYPES OF OBSERV
    30.0000                                                 INTERVAL
Forced Modulo Decimation to 30 seconds                      COMMENT
---------------------------------------------------------   COMMENT
NTUS is operated jointly for IGS by Singapore Land          COMMENT
Authority (SLA) and the Delft University of Technology      COMMENT
(DUT/DEOS).                                                 COMMENT
---------------------------------------------------------   COMMENT
SPIDER                                                      COMMENT
Made by Spider v3.2.3                                       COMMENT
Project creator:                                            COMMENT
                                                            COMMENT
 SNR is mapped to RINEX snr flag value [0-9]                COMMENT
  L1 & L2: min(max(int(snr_dBHz/6), 0), 9)                  COMMENT
teqc-dev windowed: start @ 2013 Mar 20 00:00:00.000         COMMENT
teqc-dev windowed: delta = 86400.000 sec                    COMMENT
  2013     3    20     0     0    0.0000000     GPS         TIME OF FIRST OBS
    15                                                      LEAP SECONDS
                                                            END OF HEADER
&13  3 20  0  0  0.0000000  0 16G26G05G12G25G04G15G29G09G02G24R04R19R06R15R18R05

3&107307935181 3&83616588474 3&20420011200 3&20420010060 3&51000 3&47000  847
3&122983108331 3&95831033616 3&23402891840 3&23402891300 3&46750 3&38250  746
3&118832299322 3&92596586248 3&22613033600 3&22613032080 3&48250 3&40250  846
3&123615844582 3&96324035885 3&23523314660 3&23523315980 3&43250 3&37750  746
3&128555851281 3&100173398082 3&24463366700 3&24463367820 3&42250 3&34250  745
3&106352656328 3&82872175720 3&20238236040 3&20238234560 3&51750 3&50250  848
3&122569650580 3&95508795643 3&23324230220 3&23324230060 3&44000 3&37250  746
3&121233582232 3&94467750982 3&23069975240 3&23069974780 3&46750 3&38000  746
3&117011488317 3&91177831163 3&22266522100 3&22266520020 3&48250 3&40250  846
3&123325980456 3&96098161223 3&23468156620 3&23468157880 3&43500 3&37250  746
3&123395097736 3&95974003190 3&23043156620 3&23043162800 3&43750 3&37250  7 6
3&107999903732 3&83999949754 3&20189443880 3&20189447760 3&51000 3&46000  8 7
3&118928257193 3&92499784844 3&22287108740 3&22287115260 3&46750 3&41500  7 6
3&124752026594 3&97029389860 3&23345641900 3&23345651680 3&40500 3&38250  6 6
3&107684093385 3&83754327003 3&20172859320 3&20172866580 3&51000 3&46500  8 7
3&112062475075 3&87159733073 3&20963600000 3&20963606020 3&49500 3&44500  8 7
                3

31388227 24458324 5972980 5973020 250 -750
59470927 46340906 11317120 11317060 -250 -2250
35239658 27459427 6705980 6705880 250 -1250
3925198 3058527 746840 747020 0 -4000    5
22726150 17708641 4324640 4324820 0 -2750
-27836866 -21691089 -5297180 -5297140 0 -500
-97392975 -75890667 -18533280 -18533200 -250 -750
-35587670 -27730689 -6772120 -6772080 -250 -500
-22546827 -17568988 -4290440 -4290460 0 -1000
-55313039 -43101105 -10525600 -10525660 -250 -750
96894535 75362264 18094560 18094400 -500 250
-84405413 -65648653 -15778700 -15778660 0 -500
-26572905 -20667873 -4979700 -4979580 500 -500
-36004975 -28003991 -6737700 -6737740 -250 -750
44437512 34562488 8324700 8324680 0 -500
55883437 43464851 10454120 10454240 250 -250
              1 &

618675 482086 117760 117740 -250 1250
-134191 -104615 -25540 -25540 -500 4000
84141 65578 16040 16000 -250 2500
218406 170190 41520 41480 -750 5750
205813 160357 39140 39120 750 3500
567706 442373 108060 108000 0 1000
188264 146718 35800 35780 750 2250
74122 57753 14140 14100 250 2000
162838 126896 31000 30980 0 1000
-154870 -120662 -29580 -29560 250 1000
-169219 -131615 -31600 -31580 500 -1000
499570 388553 93400 93380 250 750
523893 407460 98280 98060 -1000 750
-145759 -113355 -27320 -27260 500 750
707009 549890 132420 132460 -250 750
303288 235884 56740 56740 -750 500
                3

-6526 -5088 -1240 -1260 250 -1750
-6786 -5211 -1340 -1300 1750 -6750
-8484 -6634 -1640 -1660 0 -4250
-7690 -6011 -1420 -1380 1500 -6750    6
-4188 -3206 -720 -660 -1750 -3250
-4731 -3692 -940 -860 0 -1500
-3350 -2631 -620 -560 -1750 -4250
-2785 -2163 -580 -520 -250 -3750
-2995 -2356 -620 -560 -250 -500
-4107 -3227 -720 -660 0 -1750
-8424 -6543 -1640 -1660 -500 2250
-1346 -1044 -260 -240 -500 -750
-6573 -5075 -1320 -1140 1750 -750
-2774 -2154 -480 -560 -1250 -1250
-7052 -5489 -1340 -1340 250 -750
-9347 -7254 -1740 -1800 1500 -500
              2 &

-313 -240 -100 -40 0 750
-1058 -850 -160 -200 -2500 4250
-1789 -1383 -380 -300 500 1500
-1372 -1034 -240 -280 0 -1250    5
1528 1134 220 160 1000 -2250
1671 1303 360 280 0 500
4183 3259 820 780 2000 2750
3085 2407 600 580 0 2250
3115 2451 660 580 500 -500
2479 1946 500 420 -500 2250
-2198 -1739 -300 -280 -250 -1500
4999 3886 960 940 250 -500
-37 -65 -40 20 -1000 0
3061 2379 660 560 1500 1250
-431 -321 -80 -80 250 -250
-3410 -2666 -640 -600 -1000 -500
                3

-208 -165 -20 -40 0 -500
-621 -498 -180 -160 2250 -1750
-1194 -924 -200 -240 -500 750
-1252 -1010 -160 -220 -1500 5500    6
1850 1399 380 260 -250 2750
1865 1451 320 400 0 0
3017 2365 580 520 -1250 -1250
3431 2662 640 680 0 -500
2961 2308 500 540 -250 -1250
1927 1529 400 320 500 -4500    5
-1573 -1187 -320 -280 750 -250
5111 3966 920 920 0 750
-460 -358 -100 -140 -250 -1000
3811 2962 560 720 -1500 -500
-462 -366 -20 -80 0 250
-2881 -2234 -560 -540 250 750
              3 &

-1387 -1084 -260 -260 0 250
-1558 -1179 -220 -280 -1750 0
-3502 -2750 -680 -620 500 -250
-2449 -1894 -460 -360 500 -3750
1250 1065 240 320 750 -9000    3
600 466 120 80 0 0
1975 1516 360 380 0 1000
2236 1750 440 400 0 -1000
1952 1500 360 380 -250 2500  7
1112 818 180 240 -1000 6000    6
-3397 -2663 -640 -720 -1000 1500
3687 2887 700 720 0 -250
-1251 -962 -320 -240 750 1500
2898 2251 600 580 1750 -1250
-2084 -1618 -400 -380 -500 -250
-4606 -3581 -820 -880 250 -500
                3

174 140 20 0 250 -500
-341 -304 -120 -60 1250 -1250
-161 -100 -20 20 -500 750  7
-786 -596 -240 -200 500 -1500
1966 1486 400 500 -1250 27750  6 5
1980 1546 360 400 0 0
4499 3516 840 840 750 -1000
3811 2973 740 740 -250 2750
3694 2901 740 740 750 -1750  8
2948 2328 540 680 1250 -4750    5
-1378 -1073 -300 -160 750 -1750
5620 4357 1020 1080 0 250
-480 -367 -140 -60 250 -500
3287 2547 600 560 -2250 750
-2 2 20 -40 250 500
-2370 -1858 -420 -380 -750 750
              4 &

-4881 -3805 -920 -940 -750 1000
-5227 -4053 -880 -1000 -250 4500
-6683 -5233 -1300 -1300 750 -3000  8
-5883 -4613 -1120 -1120 0 1000    5
-2391 -1896 -480 -440 1250 -32750
-3064 -2384 -560 -600 0 0
-1495 -1157 -260 -280 -1250 1000
-1178 -925 -240 -280 750 -4250
-1453 -1148 -220 -280 -1000 750  7
-2634 -2114 -420 -580 -500 5250    6
-6472 -5020 -1200 -1260 0 250
110 90 60 -40 0 -500
-4354 -3384 -660 -800 -1500 -250
-668 -536 -220 -80 2000 1000
-5308 -4135 -960 -940 0 -500
-8159 -6329 -1540 -1560 1000 -1000
                3

4860 3788 900 940 750 -500
4924 3829 900 1080 -250 -4500
3208 2526 640 600 -750 2500
3891 3066 760 700 -750 5500    6
7124 5650 1360 1280 -750 16250
6991 5441 1300 1340 0 -250
8636 6721 1680 1700 1500 -500
8416 6552 1620 1660 -750 5000
8264 6445 1520 1580 1000 -1500  8
7620 6010 1420 1440 0 -8750    5
3295 2558 740 540 250 1250
10304 8005 1920 1960 250 500
4567 3530 860 860 2000 750
8777 6865 1720 1640 -500 -750
4545 3538 780 820 0 750
2440 1887 440 480 -1000 750
              5 &

-4890 -3811 -940 -940 -250 -250
-5178 -4005 -940 -1120 0 500
-5842 -4576 -1100 -1120 250 750
-5788 -4550 -1100 -1160 1000 -8250
-2782 -2217 -580 -540 -750 -4750
-3018 -2349 -560 -580 0 750
-1500 -1158 -300 -280 -1000 -1750
-1074 -816 -220 -220 250 -3750
-1289 -1007 -260 -280 -1000 3500  7
-2359 -1871 -460 -360 1000 7000
-6297 -4899 -1280 -1140 -1250 -1000
350 288 80 60 -500 -750
-4652 -3585 -780 -780 -1000 -500
-919 -763 -100 -180 -500 0
-5275 -4097 -980 -1020 0 -1000
-7600 -5899 -1460 -1440 1250 -250
                3

-1307 -1019 -220 -220 0 500
-1554 -1269 -340 -220 -1000 3250
-3202 -2465 -560 -640 -250 -2500  7
-2314 -1769 -500 -460 -250 3500    5
1098 802 200 -60 2500 0    4
691 539 120 140 0 -750
2925 2269 540 520 250 5250
2416 1883 460 440 0 1250
2045 1599 360 400 750 -3750
1538 1208 380 200 -2000 1250    6
-2904 -2261 -440 -600 500 0
3876 3008 660 720 0 1000
-1339 -1074 -180 -180 0 250
2712 2153 540 600 1000 250
-1797 -1406 -360 -300 0 750
-4429 -3460 -860 -840 -1750 -250
              6 &

-529 -413 -120 -80 0 0
-745 -519 -180 -200 2250 -5500    5
-886 -723 -200 -160 500 3250
-1221 -993 -180 -200 -1000 2750    6
1752 1465 360 700 -750 3000
1349 1058 300 260 0 250
3457 2694 680 720 250 -5750
3393 2613 620 640 0 250
3353 2587 680 660 -500 1250
1917 1507 320 380 750 -6500
-1588 -1222 -440 -280 1250 250
5171 4029 1040 960 750 -750
-595 -463 -120 -160 -250 -250
3694 2844 700 640 -1750 -750
-741 -581 -140 -160 -250 -250
-3003 -2327 -540 -560 1500 500
                3

-1513 -1174 -280 -280 0 -500
-1357 -1107 -280 -300 -2000 7000    6
-2943 -2289 -580 -600 -750 -4250
-2684 -2025 -600 -540 1250 -3250
730 500 100 80 -2000 -3000
426 320 60 60 0 250
2118 1662 360 360 -750 2500
2262 1788 480 460 0 -250
1597 1271 280 260 500 1500
1829 1394 280 260 250 5500
-3177 -2515 -640 -540 -2750 250
3414 2642 620 620 -1000 250
-1693 -1284 -420 -320 250 250
2153 1672 360 400 2500 1500
-2161 -1676 -380 -380 500 -250
-4445 -3453 -860 -840 -500 -500
              7 &

2106 1633 400 380 0 250
2253 1774 380 640 1000 -6500
1034 828 160 260 750 4250
1408 1041 340 360 -500 -1500    5
4585 3633 920 940 1500 12000    5
4055 3171 800 800 0 -750
5931 4591 1140 1100 750 -250
5760 4458 1060 1060 -250 -1250
5709 4445 1160 1120 0 -750
4355 3434 800 960 500 -3000
742 614 180 100 2750 0
7653 5963 1400 1460 750 0
1873 1420 300 220 250 -1250
7156 5583 1340 1340 -2500 -2000
1897 1470 300 360 -500 750
-369 -296 -20 -60 0 500
                3

-6020 -4682 -1140 -1140 0 250
-6609 -5131 -1220 -1440 -500 4000
-7286 -5701 -1440 -1360 0 -4250
-6761 -5267 -1300 -1320 -250 4000
-3732 -2990 -660 -840 0 -18250
-4113 -3212 -820 -780 0 750
-1864 -1409 -380 -340 -250 -250
-1900 -1442 -360 -320 250 3250
-2116 -1661 -420 -400 -750 -3750
-3176 -2519 -580 -640 -500 750
-6972 -5418 -1280 -1240 -1500 -500
-828 -645 -160 -200 -250 -250
-5659 -4371 -1100 -1160 -500 1000
-2751 -2137 -520 -600 1500 1000  7
-6520 -5056 -1140 -1200 750 -1000
-8632 -6709 -1620 -1600 250 0
              8 &

2226 1730 400 400 0 -750
2756 2134 520 420 500 -1000
1130 889 300 180 -500 3500
1286 1063 240 160 0 -1250    6
4643 3668 920 680 0 10500
4250 3317 820 780 0 -250
5886 4541 1080 1180 -750 2250
6033 4680 1160 1160 500 -3500
6042 4721 1120 1120 750 7000
5631 4423 1140 1080 -250 1250
718 522 80 140 500 500
7863 6109 1500 1500 250 500
1954 1514 360 380 500 1250
6882 5372 1300 1360 -1500 250
1513 1161 220 260 -1000 750
-442 -347 -60 -100 -750 -1000
                3

-5050 -3938 -920 -960 0 750
-5146 -4047 -940 -740 -250 -750
-5977 -4643 -1140 -1100 750 -1250
-5714 -4544 -1140 -1040 250 -750
-2584 -1984 -460 -320 1000 -7000    4
-2844 -2220 -540 -500 0 250
-1009 -752 -180 -200 1750 -5000
-1154 -893 -180 -260 -500 4250
-1788 -1408 -320 -320 -250 -5750
-2299 -1808 -460 -400 500 -250
-6144 -4747 -1200 -1160 750 -500
-67 -50 -40 -20 -750 -250
-4649 -3621 -900 -820 -1500 -2000
-651 -545 -140 -160 1250 -500
-5146 -3992 -920 -980 1000 -250
-7814 -6066 -1420 -1460 750 1500
              9 &

3068 2395 580 600 0 -250
3325 2647 680 520 -250 -750
1856 1424 380 320 -750 -250
2327 1887 420 420 0 -2250    5
5331 4111 960 1140 -2500 9250    5
4807 3746 900 900 0 -750
7397 5756 1440 1400 -1500 4000
7268 5665 1360 1380 -250 -6000
6922 5416 1300 1300 250 1750
5849 4554 1140 1060 -750 -2750
2267 1739 560 440 -1750 0
8878 6912 1680 1680 1000 0
3058 2385 560 640 2500 750
6828 5321 1280 1260 0 0
2550 1983 500 500 -750 0
1094 837 200 280 -250 -1000
                3

-6083 -4746 -1160 -1200 0 -250
-5964 -4659 -1160 -1080 1000 1750    5
-6940 -5412 -1320 -1300 250 250
-6898 -5439 -1300 -1260 1000 5500
-3472 -2702 -700 -700 1500 -5250
-4138 -3224 -800 -820 0 750
-2354 -1849 -480 -460 250 250
-2163 -1690 -420 -340 0 5250
-2142 -1697 -400 -360 -500 750
-2878 -2235 -600 -560 500 2750
-7567 -5822 -1460 -1440 2750 750
-864 -674 -180 -160 -750 250
-6798 -5331 -1180 -1260 -1750 -250
-1075 -840 -240 -160 -750 1250
-6836 -5313 -1300 -1300 250 0
-9199 -7166 -1780 -1800 0 0
             10 &

1360 1062 240 280 0 750
1766 1346 400 340 -1000 1500    6
524 449 140 60 250 -250
857 713 240 260 -1750 -5250
3798 2954 660 800 -500 0
3282 2556 640 640 0 -250
5406 4231 1040 1000 750 -2500
5480 4261 1040 1020 750 -4250
4851 3809 960 920 500 -250  8
4371 3386 820 800 500 -2500    5
787 547 220 80 -3500 -1000
6793 5273 1300 1280 250 -750
2030 1659 320 320 250 500
5905 4588 1000 1080 -750 -1500  6
1229 944 280 260 250 -250
-862 -635 -140 -160 0 500
                3

-760 -588 -140 -140 0 -1000
-794 -597 -140 -180 250 -2750
-1880 -1513 -400 -400 -750 750
-1645 -1281 -240 -300 1000 4750
1669 1286 320 200 -250 1250
1355 1054 260 260 250 0
3162 2447 600 580 -750 250
2941 2322 540 520 -500 5250
3268 2520 560 620 -500 -1250
2331 1870 380 400 -750 5000    6
-1971 -1510 -320 -420 3250 500
4694 3668 900 900 0 1000
-1307 -1076 -120 -140 1250 -250
2858 2256 580 620 2500 1500
-1353 -1044 -300 -300 -500 500
-3287 -2591 -660 -600 -250 -250
              1 &

-3196 -2482 -620 -620 0 500
-2918 -2265 -540 -660 -500 -1000    5
-4032 -3106 -780 -780 750 -1000
-3826 -3001 -780 -860 -500 -2000    6
-675 -459 -180 -120 1500 -5000  7
-1527 -1187 -280 -320 -500 0
1105 869 260 280 0 3500
1012 763 220 220 -250 -6750
428 357 80 60 0 2250  7
126 35 140 100 500 -5000
-4274 -3308 -800 -660 -1750 0
2020 1548 320 360 0 -750
-2557 -1973 -520 -560 -1750 -250
1697 1308 280 260 -1000 -2500
-3712 -2892 -740 -660 250 0
-5681 -4387 -1080 -1060 750 0
                3

-1499 -1186 -280 -300 -250 250
-927 -742 -280 20 500 5000    6
-2061 -1632 -360 -440 0 500
-2089 -1602 -440 -280 250 -1750
896 640 220 220 -2000 9250
625 488 120 180 0 0
2556 2006 440 400 1000 -4250
2954 2310 540 520 0 7500
2347 1794 380 480 750 -1500  8
1674 1339 320 380 -750 1750
-2036 -1599 -340 -420 -500 500
4194 3283 860 780 0 250
-2181 -1699 -420 -380 1000 250
3549 2755 840 660 -250 2250
-1935 -1502 -360 -320 -250 -500
-3739 -2940 -680 -740 -1000 -250
              2 &              7                                     1  06  5 18R05

-260 -196 -20 -40 500 -500
-135 -91 -40 -80 250 -7000
-1379 -1041 -260 -240 -500 250
-927 -756 -120 -200 500 1750
2275 1749 440 280 1000 -10250  6
1586 1230 280 300 500 0
3890 3003 780 800 -1250 2500
3518 2736 640 720 500 -4500
3578 2837 800 680 -500 -750
2314 1792 380 360 1000 2750
-1519 -1201 -340 -220 1250 -1000
4942 3828 880 960 0 250
3&126330567701  3&23649347320  3&39250   6
251 213 60 20 250 500
3729 2894 620 720 500 -1750
-896 -700 -180 -240 500 250
-2906 -2239 -560 -540 500 500
                3

-2227 -1734 -480 -380 -250 250
-1303 -1020 -280 -360 -750 6250
-2798 -2220 -540 -440 500 -1750
-2686 -2057 -500 -600 -1250 -1750
389 311 60 140 500 7500  7
40 33 0 -40 -250 0
2307 1832 480 460 250 -1000
2121 1657 400 400 -250 250
1898 1457 340 340 -500 2750
1723 1333 360 440 -1000 -6750
-2627 -1988 -500 -540 -500 1000
3525 2756 660 640 0 -500
-39901283 3&98226111481 -7470480 3&23641885460 -250 3&35500    5
-2582 -2042 -460 -400 -750 -750
2380 1846 540 440 -2000 2250
-2390 -1852 -440 -400 -500 0
-4298 -3339 -780 -800 250 -250
              3 &

19 18 40 0 0 0
159 116 -20 -60 1250 -3500
-1157 -868 -220 -180 -250 4750
-592 -492 -200 -40 1000 250    5
2514 2097 520 540 -1500 -3250  6 4
1552 1211 300 360 0 0
3915 3031 700 700 750 250
4137 3221 780 780 0 -1250
3726 2897 720 660 750 -3750
3214 2544 580 540 1000 4000    5
-856 -740 -220 -160 -1500 -750
5404 4194 980 980 0 250
-332177 -31292728 -61440 -7531880 -500 -500
20 30 20 0 250 500
4838 3772 800 880 3500 -1750
-852 -669 -140 -200 500 250
-2375 -1864 -340 -420 0 0
                3              8                                                   R20

-3260 -2546 -660 -620 -250 250
-2795 -2177 -480 -400 -750 750
-3178 -2519 -600 -600 -500 -5250
-3802 -2959 -740 -780 0 1750
-422 -559 -140 -280 750 9500    5
-878 -676 -140 -220 0 0
835 644 180 100 -750 500
1165 904 260 160 0 5000
876 695 120 220 0 3250
459 302 140 60 -1000 2750    6
-3893 -3016 -780 -760 3250 500
1981 1541 380 380 0 0
-1037 -259165 -880 -62340 1750 1000
-3008 -2340 -560 -680 -500 -750
1653 1293 460 360 -3500 750
-3717 -2891 -680 -680 -250 -500
-5425 -4222 -1100 -1000 -500 -250
3&126263283896 3&98204811685 3&23611870860 3&23611879020 3&39500 3&36750  6 6
              4 &

-2042 -1593 -320 -380 500 0
-1644 -1287 -260 -300 -500 -250    5
-3241 -2480 -680 -560 1000 2500
-2636 -2014 -540 -500 -1250 -250
265 344 140 280 1750 -21500    4
-107 -93 -40 -20 0 250
2435 1903 480 580 500 -1000
2204 1717 400 460 0 -6250
1778 1367 360 300 -500 -1500
583 515 80 180 750 -5500    5
-2794 -2118 -560 -480 -3000 -750
3501 2731 680 640 0 0
1131 864 140 160 -1250 -2250
-2416 -1867 -580 -420 750 500
2365 1811 320 440 2250 -500
-2602 -2013 -500 -500 0 250
-4414 -3419 -760 -900 0 500
-125535762 -97638926 -23475700 -23475940 -750 500
                3

854 680 160 140 0 -750
1661 1344 280 200 250 2250
264 177 20 -40 -1250 -2000
466 310 80 100 1500 2000    6
3615 2810 660 800 -2750 20250
2459 1919 460 520 0 -500
4778 3731 860 840 -750 1250
5084 3972 980 980 0 4500
4712 3684 940 960 250 0
4379 3366 840 700 -750 6750    6
398 292 160 60 2500 -250
6418 4980 1180 1200 0 250
3249 2563 740 620 -250 1750
760 581 200 80 -250 500
6000 4712 1140 1020 0 250
568 434 120 100 0 0
-1360 -1053 -280 -200 750 -250
19943 15497 3540 3760 1250 -500
              5 &

-5093 -3986 -980 -1000 -500 250
-4462 -3508 -840 -880 1000 -2000    6
-5608 -4358 -1120 -1060 1250 4000
-5552 -4317 -980 -1040 250 -4250
-2585 -2038 -440 -840 1250 -5500    5
-2769 -2155 -520 -540 0 250
-429 -342 -40 -20 750 -2000
-649 -505 -80 -120 250 -1750
-905 -702 -240 -200 250 750
-1084 -799 -200 -80 1500 -8250
-5749 -4503 -1020 -1120 -1750 2250
196 158 20 40 0 -500
-2071 -1647 -400 -360 500 -250
-4247 -3303 -820 -720 0 -500
-829 -660 -120 -100 -1750 -250
-5937 -4612 -1120 -1140 0 0
-7183 -5600 -1360 -1320 -1250 -250
-128 -74 100 -60 -2250 750
                3

-1205 -922 -220 -220 250 1250
-539 -464 -120 40 -1000 -250
-2310 -1806 -360 -520 -500 -4000
-1753 -1332 -280 -440 -1250 1500
1482 1192 300 340 1750 -8250    4
396 302 100 60 0 250
3068 2390 540 560 250 1750
2997 2316 580 580 -500 1250
2485 1929 560 480 -500 250
1727 1311 320 260 -1750 7000
-1670 -1283 -400 -360 250 -1750
4412 3429 860 840 0 0
1535 1218 280 300 -1000 -250
-1867 -1458 -380 -380 250 -250
3802 2953 680 760 1500 250  7
-1643 -1279 -300 -280 0 0
-3346 -2600 -700 -680 1250 500
4585 3585 960 980 1250 -250
              6 &

872 658 160 180 0 -1500
1488 1243 260 340 -250 -1250    5
1189 921 240 200 0 1750
507 377 100 80 750 -1000
3539 2760 660 960 -3000 17250    5
2757 2145 520 500 0 -500
4937 3851 940 940 -1000 -750
5119 4022 980 960 500 -2500
5326 4165 940 1000 500 -2250
4600 3589 860 840 750 -4500
175 141 0 120 500 -1000
6391 4976 1160 1160 0 500
3975 3059 600 740 1250 750
634 517 140 120 -750 500
6143 4777 1160 1120 -1000 0
415 306 100 80 0 0
-1277 -1003 -220 -160 -750 0
6177 4766 1160 960 250 -1250
                3              7                               19  6 0  15  8 05 20&&&

-4563 -3536 -880 -880 0 500
-3813 -3025 -700 -840 750 5500    6
-5488 -4256 -1040 -1040 -500 250
-5013 -3915 -900 -900 0 1500    5
-2052 -1653 -320 -600 2500 -23000
-2257 -1748 -420 -420 0 0
-70 -64 -20 -60 500 1500
-212 -185 -40 -60 -500 2250
-678 -559 -140 -140 -500 2000
-842 -674 -180 -60 250 3000
582 447 100 140 0 -250
-1728 -1317 -320 -300 -1250 -500    6
-4314 -3387 -840 -780 750 -250
-89 -76 -20 -100 0 500  6
-5329 -4124 -1020 -980 250 -250
-6870 -5314 -1300 -1320 500 -750
1038 810 200 200 -1250 3000
              7 &

-1581 -1241 -300 -260 0 0
-959 -754 -180 -40 -250 -5750
-2127 -1677 -400 -360 1500 -1500
-1884 -1455 -360 -340 -1250 1000
1369 1078 220 280 -1750 21250
273 211 20 20 0 750
2637 2054 500 560 -250 -2500
3140 2437 580 600 750 -1500
2623 2076 560 500 750 0
1972 1593 420 280 0 -1750
4155 3243 820 780 0 0
1847 1428 380 360 1750 -1250
-1010 -772 -160 -140 -250 0
3547 2744 540 700 1000 -500
-2131 -1668 -360 -400 -500 500
-3573 -2827 -680 -640 -500 1250
4068 3187 620 860 1750 -2750
                3

8 14 20 -40 0 250
1159 891 260 320 250 -500    5
-444 -325 -20 -80 -2000 1250
-396 -341 -160 -120 1750 -2000
2607 2058 500 680 -250 -15500
1871 1451 360 400 0 -750
4810 3751 920 880 750 1750
4448 3490 800 900 -1000 1250
4003 3110 720 720 -1250 -1000
3401 2590 700 700 -500 0
5549 4298 1020 1040 0 0
2400 1888 420 400 -1000 1250
-693 -534 -60 -120 250 0
4632 3647 940 920 -750 -500
-390 -308 -140 -120 0 -250
-1550 -1150 -200 -320 500 -1500
5532 4273 1060 1040 -1750 1250
              8 &

-3414 -2680 -640 -660 0 -750
-2767 -2113 -480 -720 0 7250    6
-3863 -3015 -760 -740 2000 -250
-3720 -2861 -680 -620 -1250 2250    6
-724 -556 -200 -300 1500 11250
-1367 -1054 -240 -260 0 250
674 534 80 180 -750 -1750
1073 825 240 180 750 -500
692 525 120 120 1000 250
398 357 0 60 750 1750
1910 1504 380 340 0 250
120 52 60 -40 -500 -1000
-3569 -2774 -720 -680 -1000 -500
2348 1776 440 440 750 1000
-4208 -3265 -760 -720 500 0
-5947 -4664 -1100 -1100 -250 1000
2000 1561 440 320 1500 -250
                3

-1538 -1181 -320 -260 0 1000
-482 -379 -20 -20 -750 -9000    5
-1734 -1365 -320 -260 -1750 -250
-1805 -1414 -340 -380 1250 -4250    5
1399 1020 200 260 -1000 -7000  7
381 284 60 40 0 0
2991 2309 600 560 0 3500
2968 2313 520 520 -750 1000
2746 2155 520 540 -250 250
2164 1648 500 400 -500 -1750
4223 3278 820 820 0 -500
1708 1379 240 260 500 1750
-938 -734 -200 -200 1750 1000
3058 2429 600 560 -1000 250
-1890 -1476 -400 -400 -250 0
-3304 -2563 -620 -620 0 0
4384 3405 860 820 -2000 0
              9 &

-113 -98 -60 -40 0 -1250
670 500 60 100 750 5750
-667 -528 -180 -160 750 1750
-468 -385 -120 -40 -1500 4750
2288 1877 440 440 0 0
1814 1416 340 360 0 -250
4463 3512 840 800 500 -3000
4370 3390 840 840 750 -2000
4087 3169 780 780 0 -250
4016 3151 680 860 -750 750
4861 3775 860 860 0 250
2769 2106 580 620 0 -1500
-538 -423 -40 -100 -2250 -1000
5179 3941 880 1000 1000 -2250
-930 -720 -160 -160 0 -250
-1847 -1422 -380 -380 0 -250
5543 4339 1040 1080 1750 250
                3

-3863 -2998 -700 -720 0 1500
-2850 -2204 -580 -580 -250 1250    6
-3999 -3083 -740 -740 250 -2250
-4096 -3169 -780 -780 1000 -2250    6
-870 -743 -140 -60 750 6250
-2000 -1551 -380 -380 0 750
548 397 140 120 -250 0
491 415 80 120 0 -500
262 218 40 20 0 750
-154 -149 -20 -100 1750 -500
2113 1656 400 440 0 0
-273 -202 -40 -80 -500 1000
-3635 -2812 -720 -760 2750 750
916 774 300 140 -1000 2750
-4236 -3292 -800 -800 250 750
-6173 -4816 -1160 -1100 -500 -500  7
1811 1385 320 340 0 -1000
             20 &

-1487 -1171 -340 -280 -250 -1500
-382 -312 -60 -180 250 -6750    5
-1673 -1322 -420 -320 -500 750
-1768 -1408 -420 -380 -500 750
1131 974 220 60 -1000 -13250    4
328 252 80 60 0 -750
2770 2167 520 520 -250 1000
3140 2416 620 580 -500 4000
2613 2047 540 540 0 -750
2033 1625 340 420 -2500 750
3740 2903 720 640 0 0
1513 1186 340 380 1000 -750
-1615 -1273 -220 -280 -2250 -250
4193 3257 800 820 500 -2250
-2300 -1797 -360 -420 -500 -750
-3284 -2546 -620 -680 1500 1000  8
4137 3223 800 720 -500 2250
                3

-2033 -1572 -340 -380 500 1250
-1231 -923 -280 -260 -1250 6250
-2691 -2116 -460 -480 1000 0
-2221 -1690 -480 -320 500 -250
875 527 160 120 0 24250    5
74 58 -20 40 0 250
2861 2242 520 540 500 -1250
2793 2184 500 520 0 -3000
2294 1762 420 480 0 1000
1746 1325 320 300 2500 -2500
3330 2584 600 640 0 0
1540 1209 240 240 -500 -250
-2051 -1593 -380 -320 500 -250
3041 2366 540 500 250 1500
-2563 -1983 -500 -460 0 0
-3847 -2996 -700 -660 -1250 -750
4026 3129 740 840 -750 -3500
              1 &

-1012 -799 -200 -200 -250 -500
72 10 100 120 2750 -500    6
-789 -565 -20 -200 -1250 -250
-1172 -923 -140 -240 -250 -1750
1567 1365 260 440 750 -26250  6 4
794 621 180 140 0 0
3466 2681 700 680 -250 2750
3564 2784 700 740 750 -1250
3285 2564 620 640 -250 -1750
3338 2608 660 620 -1500 4250
4613 3594 840 880 0 0
2046 1594 300 360 -500 1000
-567 -434 -160 -100 500 500
4021 3119 740 800 -500 -500
-1657 -1304 -320 -340 500 500
-2457 -1906 -480 -520 -500 500
4774 3720 800 820 2250 3500
                3

-1850 -1435 -340 -340 0 0
-451 -324 -140 -20 -2500 -5000
-2275 -1824 -500 -440 750 250
-2075 -1648 -360 -400 -250 1750
1121 782 260 200 -250 14750
125 98 20 20 0 0
2313 1826 460 420 -250 -2250
2408 1863 480 400 -1000 2750
2381 1885 460 480 500 1000
1738 1366 340 320 1000 -4000
3718 2888 720 700 0 0
1953 1510 500 280 1000 -1000
-2317 -1810 -380 -480 500 0
3263 2544 580 580 750 -250
-2557 -1966 -500 -460 -250 0
-3900 -3037 -720 -720 1500 -500
3997 3113 760 800 -3000 -2000
              2 &

-4083 -3188 -780 -820 0 -250
-3096 -2429 -500 -580 500 3250    5
-4221 -3264 -780 -820 -250 -1000
-4283 -3321 -760 -860 250 0
-1315 -977 -240 -180 250 0    5
-2046 -1600 -380 -420 0 0
519 393 100 120 500 250
949 756 180 180 500 0
235 146 20 20 -250 1750
35 11 20 60 -500 2500
1062 824 200 180 0 0
-1026 -818 -320 -120 -250 750
-4295 -3332 -800 -800 -1750 -500
1408 1118 260 300 -750 -250
-4549 -3551 -840 -860 0 -750
-6099 -4731 -1180 -1120 -1000 250
1616 1237 420 280 1750 750
                3

-2196 -1703 -420 -380 0 750
-829 -642 -260 -180 250 -1250
-2256 -1736 -460 -440 -250 2500
-2167 -1669 -460 -480 250 -750
810 597 140 -80 -250 -4250
-316 -250 -100 -20 0 0
2559 1988 520 520 -250 250
2412 1856 460 480 500 -2000
2108 1663 440 380 250 -3750
1766 1413 340 300 0 -750
3191 2485 560 600 0 0
1680 1329 360 340 -250 0
-1683 -1320 -420 -280 1250 250
3606 2773 680 600 -250 1250
-2899 -2271 -560 -580 0 1000
-3274 -2587 -540 -640 250 0
4024 3138 780 740 1000 -500
              3 &

871 671 140 140 0 -1000
1604 1257 240 200 -750 4750
576 407 100 120 250 -1750
615 465 160 180 -250 2250
3408 2711 600 780 -250 -2750
2586 2022 540 440 0 0
5687 4448 1060 1020 0 500
5429 4241 1080 1000 -500 1250
4992 3885 980 940 -500 2500
4787 3672 960 840 -250 0
6622 5147 1280 1200 0 0
4159 3216 880 760 250 -1000
556 429 180 80 0 250
5892 4620 1040 1140 1250 -750
193 165 0 80 -250 -1000
-1529 -1147 -320 -260 250 -250
6870 5358 1260 1260 -2500 0
                3

-2799 -2180 -460 -520 250 750
-1058 -836 -260 -80 1500 -3750
-2832 -2216 -580 -520 0 0
-2793 -2172 -560 -540 0 -3250
491 349 160 140 250 5000
-922 -710 -180 -140 0 -250
1871 1448 320 380 250 -1250
2259 1767 440 420 0 -500  8
1616 1259 280 300 500 -500
1707 1383 300 460 -250 1000
2520 1958 440 540 0 0
1028 837 240 240 -750 1500
-2783 -2145 -580 -500 -750 -250
2731 2109 620 580 -1000 -250
-3373 -2624 -580 -660 500 500
-4079 -3180 -760 -780 -500 500
2995 2316 480 640 1500 1000
              4 &

-2926 -2281 -560 -560 -750 -750
-1878 -1460 -400 -380 -1500 0
-2859 -2169 -500 -560 -250 -250
-3044 -2392 -540 -600 0 1000
-476 -363 -160 -80 -250 -1000
-800 -640 -160 -160 0 500
1554 1225 300 280 -500 750
1811 1410 340 420 -750 -500  7
1640 1282 320 280 -500 1000
541 391 100 20 1500 -1750
2525 1969 500 420 0 250
564 406 20 80 250 -1250
-2556 -1990 -500 -480 1000 -250
2364 1815 400 360 750 250
-3641 -2824 -680 -660 -250 250
-4594 -3585 -840 -860 250 -250
3224 2534 580 540 250 -1750
                3

-1687 -1309 -320 -300 750 1750
-125 -121 -20 -20 1750 -1250
-1799 -1451 -380 -280 500 1750
-1691 -1278 -400 -360 0 1750
1396 1067 340 120 1500 -5250    4
128 104 20 20 0 -250
3031 2320 600 540 250 -250
2919 2250 480 520 1500 1250
2531 1968 460 520 250 -2250
2976 2337 520 580 -1750 -750
3797 2954 720 760 0 -500
1805 1421 260 260 0 1000
-1834 -1462 -300 -300 -500 500    7
4019 3138 820 780 -1250 0
-2346 -1834 -440 -440 250 -250
-3239 -2506 -640 -600 500 0
4499 3464 820 820 -1750 1750
              5 &

-5365 -4184 -1060 -1040 -250 -2250
-4017 -3063 -620 -940 -750 2000
-5181 -4030 -1020 -1020 0 -2250
-5393 -4234 -1040 -980 -500 -1500
-2394 -1872 -480 -240 -1750 11250    5
-3711 -2882 -700 -700 0 250
-1071 -796 -220 -140 250 750
-658 -465 -140 -100 -1000 250
-896 -693 -160 -220 0 2000
-1367 -1090 -180 -240 1000 2500
50 38 20 0 250 250
-1426 -1112 -240 -260 1000 -2250    5
-5530 -4250 -1060 -1140 -250 -750    6
-345 -273 -140 -60 750 -250
-6095 -4733 -1120 -1160 -750 0
-7054 -5515 -1280 -1340 -1250 0
655 532 80 160 3000 -1000
                3

1985 1547 340 420 0 1500
3184 2445 720 780 -750 1500    6
1835 1452 440 380 -750 750
1952 1529 320 480 500 -750
4472 3552 880 460 0 -8250
3932 3058 740 740 0 -750
6889 5372 1280 1300 -500 250
6728 5219 1260 1220 -250 250
6172 4802 1120 1240 0 -1000
6107 4826 1120 1080 250 -1750
7062 5497 1280 1320 -500 0
5632 4379 1060 1080 -250 4000    6
1622 1229 280 340 0 500
7872 6141 1520 1480 500 1000
1533 1180 280 340 750 0
592 504 80 160 1250 -250
8057 6264 1600 1440 -3500 500
              6 &

-3725 -2894 -680 -740 0 -750
-2082 -1649 -380 -300 1000 -5500    5
-3372 -2652 -700 -720 1000 1500
-3730 -2888 -700 -780 750 1250
-442 -420 -100 160 1000 -2250    4
-1761 -1373 -340 -300 0 1000
1073 816 220 200 0 -1000
1147 887 260 220 1500 -3500
672 527 120 120 -500 0
736 498 160 240 -1000 3500
2063 1592 400 380 250 0
316 254 -20 120 -2000 -3000
-2952 -2271 -520 -580 250 0
1679 1285 320 300 -1250 -1750
-4637 -3597 -900 -920 -250 0
-5405 -4236 -1000 -1020 -1250 500
2517 1934 500 480 1250 -750
                3

-5073 -3964 -980 -980 0 -250
-3855 -2984 -720 -760 -500 7000    6
-4950 -3841 -880 -900 -250 -3000  8
-4947 -3887 -720 -980 -1250 1250
-2295 -1736 -440 -380 -500 7750
-3232 -2519 -600 -660 0 -750
-720 -558 -160 -140 750 -250
-30 -22 20 60 -1500 4000
-321 -264 -40 -80 750 -250
-721 -550 -120 -100 500 -4750
26 34 -20 0 -250 0
-1372 -1109 -160 -340 2500 1000
-5660 -4431 -1100 -1060 750 750
723 562 120 120 1250 1000
-5700 -4433 -1000 -1000 0 0
-6409 -4976 -1240 -1180 1750 -250
1105 881 80 340 2000 1000
              7 &

2744 2139 520 520 -250 750
4471 3516 800 700 -1250 -6750    5
2490 1934 500 440 -1000 3500  7
2786 2181 460 520 500 -1500
5714 4403 1100 1020 0 -7000  7
4857 3782 920 980 0 250
8109 6323 1560 1500 -250 -500
7573 5918 1400 1440 500 -1750
7152 5585 1360 1340 250 1750
6848 5388 1240 1200 0 2000
8469 6581 1560 1560 500 -250
6387 4996 1120 1320 -2250 250
3333 2616 680 700 -1500 -1500
8800 6861 1600 1680 0 250
2245 1731 360 340 -250 -250
1267 1009 280 220 -1750 0
8860 6912 1760 1540 -750 -500
                3

-7571 -5893 -1420 -1420 500 500
-6027 -4732 -1240 -1220 1750 4250
-7263 -5654 -1400 -1380 1250 -2750  8
-7482 -5838 -1400 -1340 750 -1250
-4743 -3700 -820 -900 0 5000
-6137 -4773 -1200 -1200 0 0
-3250 -2553 -640 -580 -500 1500  8
-2907 -2280 -520 -520 250 2000  8
-3381 -2637 -600 -600 -1500 -1500
-3293 -2618 -660 -600 -250 1000
-2744 -2136 -480 -520 -250 750
-3401 -2619 -660 -620 1750 -750
-8096 -6319 -1560 -1600 1000 750
-2674 -2084 -460 -540 -2000 250
-8505 -6591 -1580 -1540 750 500
-8909 -6986 -1700 -1720 1500 0
-1137 -927 -180 -140 -1000 -500
              8 &

2262 1750 420 380 -250 -1750
3699 2866 680 740 0 -3000
2762 2141 500 560 -750 1000
2246 1783 480 300 -1500 1000
5192 4129 920 960 -250 1750
4051 3146 800 780 0 0
7057 5529 1380 1360 0 500
7394 5758 1440 1380 -750 -3750  7
6839 5331 1260 1300 2250 -1000
6635 5171 1280 1300 750 -1250
7953 6193 1500 1540 0 -750
5923 4581 1180 1020 -250 -500
2462 1921 520 440 -250 500
8170 6327 1480 1580 3250 -750
1547 1200 260 260 -1000 0
627 541 120 180 -1500 0
8407 6574 1460 1580 -1250 1000
                3

-4939 -3839 -900 -920 0 1500
-3097 -2403 -540 -500 -1000 7500
-4828 -3760 -900 -920 250 -500
-4648 -3661 -1000 -940 1000 -500
-1730 -1475 -340 -300 500 -11750    3
-2860 -2223 -540 -560 0 0
-133 -138 -40 -60 0 -1250  7
33 49 0 0 1000 2250  8
-261 -197 -20 -40 -1750 2250
-495 -361 -100 -20 -500 -1250
445 343 80 80 0 0
-608 -467 40 -80 1000 1000
-4666 -3622 -920 -840 -500 -1250
925 739 180 140 -3750 0
-5368 -4186 -980 -980 750 -1000
-6173 -4829 -1160 -1180 750 0
1393 1037 300 140 3000 -500
              9 &

123 99 -20 60 -250 -500
1658 1340 280 480 750 -7750
15 19 -100 -40 0 1750
218 210 -40 100 0 1250    5
2759 2204 580 680 -1000 23250    5
2106 1638 380 420 250 -250
4822 3795 880 980 1000 500  8
4925 3810 940 920 -500 -250
4501 3493 880 780 250 -250
4622 3587 940 760 -1000 3000
5189 4024 980 960 250 750
4013 3108 680 720 -3000 -250
-639 -486 -160 -120 1250 1500
5739 4484 1080 1060 3000 750
-677 -522 -140 -180 0 1250
-888 -670 -160 -120 250 -250
6562 5161 1320 1360 -1750 -500
                3

-3538 -2758 -680 -700 750 0
-2115 -1722 -420 -500 -750 0
-2908 -2264 -480 -500 0 -2000
-3404 -2695 -660 -660 -1000 1000    6
-324 -142 -160 -60 1250 -27250    4
-2002 -1546 -360 -400 -500 750
1371 1038 320 260 -1000 -1250
1278 1000 200 220 -500 -500
656 532 100 240 500 -1750
1144 906 160 180 2000 -2000
1922 1521 360 360 -500 -1000
807 628 100 120 3250 500
-2714 -2138 -400 -500 -1500 -1250
2373 1810 440 440 -1500 -1000
-4337 -3361 -800 -780 -500 -750
-4961 -3876 -960 -980 -1000 500
2765 2104 420 400 0 1250
             30 &

-827 -651 -120 -120 -1000 -250
1341 1110 200 160 1000 2750
-495 -407 -140 -100 -250 1000  7
-667 -502 -100 60 1750 -3000    5
2028 1381 400 240 -500 18000    5
1461 1122 240 280 0 -1000
3907 3054 700 700 0 1250
4280 3347 880 800 750 1250
3842 2967 720 660 -250 1000
2899 2245 620 560 -1250 0
4557 3518 860 860 250 1000
2987 2333 580 580 -2500 -1500
-1141 -853 -280 -180 1250 500
4980 3882 820 940 0 250
-1468 -1155 -240 -300 250 250
-2162 -1688 -380 -460 2000 -500
5655 4415 1180 1160 -250 -1750
                3

-4218 -3272 -800 -820 500 500
-2644 -2107 -540 -440 -1500 2000
-4259 -3289 -780 -800 750 -500  8
-3952 -3078 -740 -820 -1750 4000    6
-1287 -893 -220 -240 -750 -7750  6
-3345 -2603 -620 -620 500 750
22 13 60 40 250 1000
681 517 40 80 -500 -1000  7
253 212 100 60 -250 0
1165 905 160 280 250 1750
591 471 100 140 0 -750
-167 -112 -80 -20 1250 1500
-3821 -3004 -680 -720 -750 500
1375 1119 400 300 3500 1500
-5048 -3923 -1020 -940 0 250
-5652 -4369 -1020 -1040 -1500 0
2119 1649 300 360 500 1500
              1 &

-5466 -4273 -1040 -1060 250 0
-3810 -2950 -680 -640 2500 -6000
-5046 -3959 -940 -1040 -750 500
-5197 -4021 -960 -1040 1250 -5750    5
-2114 -1602 -420 -320 1250 -4500    4
-2995 -2333 -560 -580 -250 -250
160 133 0 0 250 -2250
-275 -196 0 0 500 0
-562 -436 -180 -40 250 750  7
-1279 -979 -200 -280 -500 -2000
248 195 40 20 0 500
-936 -770 -120 -180 250 -500
-5966 -4632 -1140 -1100 250 -750
1068 762 200 200 -4750 -2000
-5939 -4623 -1060 -1080 250 -250
-6417 -4999 -1220 -1180 -1000 750  7
1091 835 180 160 1000 0
                3

5002 3886 980 980 0 -750
6698 5218 1320 1220 -3500 8500  6
5911 4619 1120 1120 250 250
5160 3959 1080 940 -1000 5750    6
7498 5725 1380 1580 -1500 14000
6737 5248 1280 1280 0 0
9795 7637 1880 1900 -500 1250
9795 7613 1820 1860 -500 250
9189 7155 1720 1660 500 -1000  8
9731 7544 1860 1920 1000 500
10161 7894 1940 1880 0 -750
9198 7179 1780 1700 -250 0
4877 3810 860 880 250 500
10020 7816 2020 1880 2000 750
4062 3164 780 780 -500 -250
3878 2970 740 720 2500 -1250  8 6
11351 8848 2160 2180 -2000 -1500
              2 &              8          18 25 04 15 2   9 02G24  9 1  06  5 18 05R20

-7314 -5676 -1400 -1460 -500 500
-5355 -4156 -1080 -1200 4250 -10000  7
-6956 -5412 -1360 -1260 0 -750
3&130446562166 3&101646671701 3&24823154680 3&24823154400 3&40250 3&32750  645
-7070 -5456 -1420 -1360 750 -2750
-4037 -3014 -720 -1060 1500 -6000    5
-5665 -4409 -1100 -1060 0 0
-2756 -2167 -540 -580 250 -500
-2201 -1702 -420 -380 500 -500
-2405 -1873 -400 -460 -1000 250  7
-2775 -2119 -560 -580 -750 1000
-2079 -1610 -440 -400 -250 750
-3240 -2512 -680 -620 -2500 -250
-7131 -5565 -1220 -1300 -500 -750
-1382 -1057 -380 -280 -500 250
-8015 -6245 -1520 -1540 250 750
-8688 -6691 -1620 -1600 -1250 1500
-746 -567 -200 -180 2000 2500
                3

-9488 -7406 -1820 -1740 0 250
-7384 -5804 -1260 -1340 -3250 2750    4
-8988 -7022 -1680 -1680 0 -1000
-8605050 -6705270 -1637640 -1637700 500 -6750    4
-8971 -7020 -1800 -1600 -250 -2750    5
-6437 -5101 -1220 -1180 1000 -13750    3
-7431 -5794 -1380 -1420 0 0
-4465 -3454 -820 -820 250 0
-4231 -3306 -780 -840 -750 2000
-5013 -3906 -960 -920 750 -1000
-4598 -3589 -860 -800 750 -1250
-4386 -3404 -800 -800 500 -250
-5102 -3991 -1060 -960 2750 1000
-9229 -7174 -1720 -1780 500 750
-3152 -2435 -520 -540 500 -500
-10034 -7790 -1900 -1840 0 -750
-10514 -8213 -1960 -1960 0 -1000
-2795 -2222 -480 -440 -2000 -2750
              3 &

11727 9148 2180 2200 500 -750
13400 10529 2640 2440 1500 11000    5
11977 9352 2280 2220 -250 2500  7
163361 127195 31160 31600 750 6000  7
11727 9151 2300 2120 -500 6000    6
14404 11252 2700 2660 -1750 32250    5
12878 10039 2420 2460 0 -250
16213 12620 3060 3080 -250 1000    7
16485 12869 3120 3180 1250 -3000
16157 12593 3080 3060 -500 2250
16154 12555 3100 3000 -250 750
17100 13291 3160 3120 -250 0
16027 12481 2860 3060 1000 -1250
11568 8990 2140 2140 0 -500
18031 13984 3240 3340 0 500
10654 8263 1980 1980 -500 500
10840 8440 2020 2060 -750 500
18150 14163 3420 3280 750 1500
                3

-12154 -9476 -2300 -2320 -250 1500
-10043 -7902 -1880 -1920 -250 -11250    6
-11785 -9180 -2260 -2260 500 -750
-10862 -8324 -2000 -2700 -2000 -1750
-11619 -9086 -2300 -2200 1750 -5500    5
-8865 -6974 -1580 -1480 -750 -31000
-9940 -7745 -1860 -1920 0 750
-6972 -5423 -1300 -1360 -250 -2250    6
-6720 -5253 -1280 -1300 -1000 1750
-7475 -5829 -1420 -1420 750 -1500
-7782 -6030 -1460 -1460 -750 -500
-7344 -5719 -1360 -1300 0 0
-7619 -5925 -1300 -1360 -750 500
-12356 -9605 -2420 -2280 -500 500
-6861 -5337 -1280 -1280 -500 -500
-12618 -9798 -2400 -2360 750 -500
-13491 -10503 -2540 -2600 500 -500  7
-5609 -4383 -1060 -940 1250 -250
              4 &

583 459 120 180 -250 -1250
2350 1842 380 700 -1250 -5500    5
1471 1126 300 300 0 -1750  8
1252 949 80 280 1250 -8000
894 768 240 380 -1750 6000    6
3833 3100 660 640 1500 12750
2325 1807 420 480 0 -1000
5520 4293 1020 1080 250 3250
5537 4315 1100 1040 500 750
5293 4128 1040 1020 -1000 500
5590 4336 1060 1060 750 -1250
5998 4690 1180 1120 0 -250
4985 3852 1280 920 -2000 500
681 534 180 120 250 -250
7050 5509 1360 1280 -500 500
-167 -130 -20 -20 0 250
-213 -156 -40 40 1000 500
7250 5636 1380 1200 -1500 250
                3

-104 -91 -20 -60 500 250
1900 1524 300 320 1750 19500
560 455 120 140 -500 1750
653 522 140 420 -1000 4000  6
253 159 120 -180 250 -4500
2471 1928 500 300 750 -7750
1424 1107 280 220 -250 1000
4775 3734 900 920 -250 -2000    7
4749 3708 920 940 -500 -1500
4248 3311 780 760 750 -2000
5084 3986 940 960 -750 3750
4963 3838 880 940 0 500
4241 3334 700 780 1500 -750
430 341 80 60 250 -500
5798 4507 1160 1100 1000 -500
-889 -686 -120 -240 -250 250
-1377 -1054 -300 -220 -250 0
6601 5145 1220 1300 -750 -500
              5 &

-5229 -4072 -940 -1000 -250 -750
-2968 -2354 -600 -520 -750 -17250
-5032 -3938 -920 -980 -250 0  7
-4178 -3281 -860 -1100 750 750
-4808 -3776 -960 -820 -250 750
-1888 -1642 -380 -180 -2500 10750
-3073 -2392 -580 -540 750 -1000
-248 -222 -40 -60 750 -250
149 114 40 -20 250 750
-338 -261 -80 -60 0 3500
-831 -672 -200 -180 1000 -2750
-164 -127 -40 -60 0 0
-801 -634 -320 -240 -250 0
-5825 -4547 -1020 -1100 -500 1250
994 766 100 160 750 250
-5985 -4663 -1120 -1100 0 -500
-5757 -4512 -1040 -1080 -1750 -250
1427 1098 260 260 4000 250
                3

-3105 -2420 -640 -580 250 1000
-1257 -949 -300 -260 -1500 6750  6 6
-2438 -1898 -540 -480 1000 -2500
-2376 -1842 -500 -360 2250 1500    5
-2873 -2192 -520 -540 1250 -1750    5
-110 126 -20 -60 1000 -3250
-1770 -1376 -320 -340 -750 750
1500 1197 280 320 -750 -250    6
1880 1433 300 380 0 -1250
1146 890 280 240 -500 -2000
1512 1177 300 320 -1000 0
2016 1583 380 400 250 -500
1692 1308 320 360 500 -500
-2789 -2158 -480 -520 500 -1500
2698 2084 480 480 -1000 -500
-4138 -3224 -780 -760 0 0
-4330 -3345 -820 -840 2000 -250
3362 2631 600 660 -4000 -500
              6 &

-2706 -2096 -480 -540 -750 250
-393 -403 -120 -40 2500 -3000    5
-1713 -1322 -320 -340 -750 4000
-1784 -1412 -160 -420 -1500 -9500    4
-2124 -1695 -420 -260 -750 5000    6
190 -41 80 80 1500 -4250
-990 -778 -180 -200 250 -250
2182 1691 420 420 250 1250
2387 1913 480 480 250 2250
2031 1589 340 400 500 0  8
2175 1706 440 400 1250 1500
2240 1728 440 420 -750 250
1565 1210 320 220 -1250 1000
-3003 -2336 -680 -520 -500 1500
3609 2831 700 660 -750 500
-3141 -2421 -560 -600 250 500
-3396 -2635 -620 -680 -1750 0
4110 3202 780 760 0 1250
                3              7                15 29 0   2 24R19  6 0  15  8 05 20&&&

-1622 -1285 -340 -360 750 -1250
286 352 40 20 -500 4500    6
-1382 -1077 -260 -220 500 -1750
-465 -363 -100 -120 -1750 8750
-1189 -920 -260 -440 0 -7500    5
363 291 60 80 0 250
3549 2764 660 620 0 500    7
3596 2786 640 700 -750 -1000
3088 2396 560 540 -500 1500
3662 2854 640 700 -1500 -2250
3704 2883 640 660 750 0
3214 2501 580 560 750 -500
-1422 -1114 -320 -240 750 -1000
4284 3335 800 840 1250 250
-2403 -1880 -440 -460 -750 -500
-2827 -2232 -500 -520 3250 1000
5332 4097 1000 1000 3000 -750
              7 &

-4632 -3596 -900 -820 -250 1000
-2599 -2083 -300 -620 0 -8250  7 5
-3756 -2939 -740 -660 -500 -750
-4108 -3193 -760 -620 250 -12500    2
-4175 -3192 -660 -640 -250 7750
-3029 -2369 -560 -580 0 -500
86 68 60 40 0 -1500
752 568 140 100 750 -1250
126 111 100 40 750 -3250
91 61 60 40 1500 2250
153 124 60 80 -250 250
-51 -18 -60 80 0 1250
-4660 -3629 -760 -920 -1500 0
1579 1215 260 240 -1000 0
-5281 -4109 -1000 -1020 500 500
-5290 -4079 -960 -1020 -4500 -1000    7
1911 1557 380 320 -2250 -750
                3

-265 -205 -60 -60 0 500
2260 1790 500 540 -1750 13000  6
1114 887 260 180 500 -1250
994 762 80 -80 2000 35750    4
219 90 -20 -140 1000 -2500
1129 886 180 220 0 250
4690 3647 840 860 0 0
4755 3715 920 920 -500 1000
4396 3405 820 880 -1000 3250
4701 3672 940 840 -1000 -1500
4861 3772 900 840 0 -500
4421 3447 880 860 -250 -250
-193 -136 -20 -20 1500 1000
6258 4869 1220 1260 1000 -500  7
-1236 -968 -240 -120 250 -250
-1058 -877 -200 -180 3750 -250    6
6406 4961 1200 1280 -250 1750
              8 &

-5142 -4025 -940 -960 0 -1750
-3218 -2563 -700 -740 2250 -9250  7
-5058 -3985 -940 -1000 -250 4500
-4477 -3374 -840 -620 -250 -37250
-4642 -3570 -940 -840 -1750 -2000
-3411 -2665 -660 -680 0 -250
142 128 40 40 0 1000
-111 -94 -80 -40 250 1000
-477 -359 -120 -100 500 -2000
-364 -293 -140 -120 -250 250
-396 -302 -60 0 0 250
-547 -455 -160 -40 1250 -1500
-5362 -4178 -1180 -980 -500 -1500
742 551 120 180 -1500 750  6
-5805 -4511 -1140 -1140 -750 -250
-5921 -4536 -1100 -1080 -2250 750
1947 1466 420 280 1750 -1250
                3

-1137 -872 -220 -260 0 1250
1383 1126 260 380 -750 3500    6
-530 -359 -100 -60 250 -4500
-175 -339 80 20 -1750 15500    5
-602 -488 -80 -80 1500 3000    6
844 665 180 160 0 750
3083 2396 620 600 -500 -750
4028 3159 800 800 0 -2000
3444 2687 620 660 0 1250
4290 3352 840 880 750 250
4074 3169 740 700 0 0
3739 2916 660 660 -1500 -250
-1012 -775 -120 -180 250 1250
5107 4021 980 900 1750 -1250  7
-2033 -1575 -360 -360 750 750
-2092 -1636 -420 -440 1000 0    7
5503 4330 960 1140 -1250 0
              9 &

-2049 -1593 -360 -360 0 0
-22 -35 40 60 -1250 -10000    5
-1165 -935 -180 -220 -500 2750
-663 -368 -160 -20 2000 -3250  7
-1604 -1243 -320 -280 -750 -4750    5
-777 -606 -140 -120 0 -750
3429 2663 620 660 1000 250
3258 2509 620 580 250 1500
2347 1822 480 420 0 -1000
2240 1741 420 440 -500 500
2666 2073 580 520 0 0
2702 2095 560 440 -1000 1750
-1517 -1190 -260 -240 -500 -750
4291 3279 800 820 -1500 1500  6
-2677 -2098 -540 -520 0 -1250
-2481 -1992 -560 -400 -250 -750    6
4603 3594 780 840 -250 250
                3

-3169 -2475 -620 -580 0 -500
-325 -239 -140 -180 1500 18250
-1773 -1387 -400 -360 500 -2250
-2383 -1966 -460 -700 -3250 -6250  6
-2536 -1988 -580 -600 0 6000    6
-1236 -970 -260 -260 0 250
1713 1348 320 340 -250 250
1826 1443 380 360 -250 -750
1807 1406 280 320 0 1250
2374 1861 460 480 750 -750
1797 1393 260 320 0 0
1627 1299 380 340 2500 -750
-3926 -3056 -740 -780 250 750
2682 2146 480 560 1000 -500
-4173 -3233 -720 -800 -500 1500
-4220 -3230 -780 -860 -250 750
3992 3042 820 720 1750 250  7
             40 &

-1671 -1301 -320 -340 0 500
-150 -136 -100 -80 -1000 -14750
-1158 -894 -200 -240 -500 2000
-1091 -673 -340 -260 4250 5000    4
-1074 -831 -160 -160 -250 -5000
-192 -142 -20 0 0 0
3387 2632 680 620 -750 -750
3710 2866 720 720 0 1000
2976 2325 600 580 0 -1250
3256 2524 640 640 -750 500
3349 2612 640 660 0 0
3142 2400 400 580 -1500 750
-1056 -813 -200 -200 0 -1250
5370 4133 1000 960 0 -500
-2020 -1562 -360 -320 1000 -1000
-1863 -1445 -300 -360 750 -250
5311 4174 1040 960 -2250 250
                3

-2239 -1744 -440 -400 250 -750    6
395 325 60 160 750 8000
-1700 -1327 -380 -260 0 250
-789 -836 -140 -100 -2750 10750    5
-1677 -1315 -420 -260 1500 2250
-338 -270 -80 -120 0 -250
2394 1856 440 460 750 1000
2930 2319 560 560 -250 -1250
2265 1757 400 460 0 750
2800 2197 520 520 500 -750
2502 1939 500 420 0 0
2803 2231 620 540 1750 -1000
-2404 -1886 -360 -540 -250 1250
3755 2914 680 720 250 -250
-3252 -2562 -620 -660 -1250 250
-3011 -2386 -560 -560 -1250 -250
4242 3281 760 820 1000 -1750
              1 &

-6036 -4705 -1140 -1160 -750 1250    7
-3423 -2707 -640 -700 -1000 -4250
-4590 -3577 -880 -880 250 -2000
-4748 -3593 -900 -780 1000 -14250
-5448 -4204 -940 -1020 -1000 -250    5
-4743 -3693 -900 -880 0 750
-810 -616 -140 -140 0 -500
-704 -573 -140 -180 750 -500
-1272 -993 -220 -240 0 -500
-836 -671 -180 -140 -750 1000
-1393 -1085 -300 -220 0 0
-1179 -950 -20 -200 -2500 -1250
-6323 -4901 -1260 -1100 750 -750
63 80 20 -40 0 750  7
-6859 -5298 -1300 -1320 750 -250
-6981 -5376 -1320 -1300 1750 500
1232 976 200 200 250 2000
                3

-1298 -1017 -300 -260 500 -1000
864 744 140 180 1750 750
-549 -428 -80 -140 250 750
-699 -390 -20 -220 -500 -9500    3
-692 -584 -40 -260 -250 0
342 269 80 80 0 -750
3258 2537 600 560 -750 -750
3894 3043 760 780 -750 2250
3530 2758 680 660 250 -500
3842 3004 740 720 750 -1000
3653 2845 720 680 0 0
3719 2877 640 600 2250 2250
-1084 -856 -140 -240 -250 0
5232 4054 1000 940 -1500 -250
-2086 -1625 -360 -340 -500 250
-1225 -993 -220 -240 -1750 -250
5537 4270 1000 1060 -750 -750
              2 &

-2313 -1786 -400 -440 250 250
221 128 160 180 -1000 1500
-1449 -1118 -280 -300 0 1000
-1336 -1331 -240 -440 500 36500    4
-1693 -1305 -360 -280 0 500
-847 -662 -180 -180 0 0
2905 2250 540 580 750 1750
3027 2359 580 600 250 -2000
2043 1594 480 360 -500 1750
2663 2089 520 480 -500 1250
2315 1803 400 460 0 0
2276 1816 480 440 -1250 -500
-2449 -1867 -480 -500 -750 1000
3912 3065 780 740 1000 0
-3156 -2467 -600 -620 500 250
-3686 -2852 -620 -660 1250 -250
4449 3502 840 840 1000 -250
                3

-4346 -3394 -860 -840 -250 0
-1994 -1558 -460 -380 -1250 -1750  6
-3451 -2699 -600 -640 -750 -1250
-2991 -2173 -580 -80 0 -30250    5
-3622 -2814 -700 -640 1250 -1250
-2556 -1984 -460 -480 0 500
726 585 160 140 0 -1750
913 713 160 160 250 2250
580 442 80 180 250 -1250
534 403 100 20 500 -1750
409 317 100 40 0 0
1126 854 120 220 1250 500
-4389 -3449 -860 -780 500 -1000
1734 1337 360 360 750 250
-4934 -3835 -940 -940 -500 -250
-4598 -3563 -880 -780 -750 750
2902 2249 620 540 -500 250
              3 &

-2275 -1778 -380 -440 0 -500    6
510 354 40 -20 2250 2750    6
-966 -756 -260 -200 500 500
-1472 -1142 -280 -660 0 8500
-1569 -1217 -220 -280 -2250 3250    6
-549 -441 -100 -100 0 -250
2633 2024 540 520 -750 1250
3029 2349 640 600 0 -4250
2514 1962 460 460 250 750
3907 3035 720 840 -250 1500
2601 2022 440 480 0 0
2605 2004 440 540 -2000 -1250
-2059 -1603 -440 -360 -250 -250
4701 3654 760 900 -2000 -750
-3311 -2584 -620 -600 500 0
-2654 -2105 -520 -540 500 -1000
4495 3465 860 800 250 0
                3

266 204 20 80 250 750
2263 1898 480 420 -750 -6750    5
1195 926 220 180 0 -1500
1354 1004 320 420 -250 -6000    4
861 634 100 160 1250 -6750    5
1536 1208 240 300 0 0
5017 3930 920 980 1000 -1250
5196 4052 920 920 -750 6000
4838 3780 960 940 -250 -1750
4491 3520 860 840 500 250
4723 3673 920 900 0 0
5379 4181 900 1020 500 0
433 324 180 60 250 500
6390 4979 1220 1160 1250 750
-431 -318 -60 -40 -250 -250
-243 -126 -20 -20 0 1000
7297 5704 1380 1380 -750 0
              4 &

-6712 -5225 -1240 -1280 -750 0
-3781 -3060 -680 -780 -250 7750  7
-5477 -4240 -1040 -980 500 2500
-5572 -4296 -1100 -1080 -750 12250    5
-5965 -4598 -1200 -1140 1000 7750    6
-5141 -4015 -940 -1000 0 -250
-1494 -1168 -280 -340 -500 1500
-1293 -994 -260 -280 750 -5750
-2066 -1630 -420 -400 -250 2500
-1143 -910 -220 -200 -1250 -2500
-1953 -1521 -340 -400 0 -250
-1651 -1233 -360 -340 250 -250
-7212 -5567 -1440 -1340 500 250
-283 -212 -40 -20 750 250
-7427 -5788 -1420 -1440 -500 0
-7149 -5612 -1420 -1340 -750 -750
259 200 -20 40 500 500
                3

-530 -409 -120 -80 750 -500
1968 1541 380 500 -750 -2750  6
139 74 40 -20 -750 -250
707 520 40 40 1250 -14250    4
310 191 120 0 -1250 -7500    5
1041 818 180 200 0 750
4500 3500 860 880 -250 -500
4835 3750 920 1040 -750 3750
3992 3129 760 740 250 -2000
4805 3764 880 900 1500 3750
4049 3157 720 760 0 500
4469 3401 1040 780 2750 2250
-454 -374 -60 -140 -1000 0
6277 4822 1160 1160 -1000 -1000
-1346 -1044 -280 -260 500 1000
-882 -667 -100 -140 500 250
6777 5260 1300 1300 250 -1000
              5 &

-4814 -3749 -900 -940 -250 750
-1957 -1512 -440 -480 750 -1000
-3515 -2708 -700 -660 0 0
-3842 -2951 -700 -400 -750 20500    5
-4155 -3210 -780 -760 -250 9250    6
-3318 -2587 -620 -600 0 -750
-182 -129 -80 -60 250 -1000
300 246 0 -40 750 -1500
219 169 20 80 0 500
550 410 180 60 -1500 -3250
-162 -126 0 20 0 -250
660 569 200 200 -4250 -2000
-4218 -3294 -700 -740 500 -1000
1044 851 240 180 -250 0
-5614 -4374 -1080 -1040 0 -750
-5184 -4048 -1000 -1080 250 250
2026 1580 400 380 -250 0
                3

-3024 -2360 -620 -560 -250 -500
-829 -616 -20 -180 1000 1750
-1488 -1175 -240 -280 750 -1750
-1989 -1587 -420 -540 1250 -22500  7
-2315 -1794 -380 -380 1000 -8250    5
-1500 -1171 -280 -300 0 250
1687 1316 340 320 0 750
2206 1712 420 440 -250 -250
1363 1054 220 240 0 1250
2390 1867 440 500 1250 1250
1420 1101 260 220 0 250
2036 1573 320 380 2250 250
-3495 -2702 -740 -660 500 1250
3536 2771 640 660 500 750  6
-3792 -2949 -680 -620 0 -250
-3596 -2774 -680 -600 -750 -500
4143 3231 700 780 -500 1250
              6 &

-1988 -1545 -380 -360 500 -250
522 394 240 80 -750 -750  7 6
-1242 -962 -160 -160 -500 500
-901 -719 -180 -240 -2000 11000
-1214 -948 -300 -280 -1500 3500
-421 -327 -80 -80 0 -250
3184 2463 640 620 0 750
3183 2504 660 660 0 750
2931 2306 580 540 0 -1750
3261 2542 620 600 -750 0
2346 1823 400 460 0 -750
3191 2452 560 520 -750 250
-1870 -1453 -360 -420 -500 -500
4730 3641 940 900 750 250  7
-3073 -2384 -580 -680 250 250
-2075 -1614 -360 -440 1250 250
4901 3801 940 900 1250 -1000
                3

-1689 -1315 -300 -340 -250 250
1316 1022 220 360 -1500 -8000  6 5
-604 -467 -120 -80 -250 1500
-184 -74 -60 -180 750 -2500
-802 -663 -200 -120 2250 -1250
-68 -42 0 -20 0 500
3829 3006 700 760 0 -1250
4117 3175 800 760 0 250
3042 2361 580 580 250 1250
3115 2440 600 560 250 0
3165 2468 620 620 0 750
3703 2904 700 780 250 250  7
-1636 -1282 -200 -200 -250 0
4796 3743 820 920 -1250 -750  6
-2150 -1659 -360 -380 -750 0
-2192 -1721 -460 -380 -1750 0
5584 4338 980 1040 -2250 500
              7 &

-3785 -2960 -760 -740 0 250
-1000 -787 -320 -240 1750 17000
-2531 -1995 -500 -600 250 -1250
-3048 -2486 -620 -560 500 1500
-3093 -2353 -640 -620 -2250 3250    6
-2632 -2073 -520 -500 0 -250
793 605 180 140 250 500
1269 997 240 220 250 -2000
564 430 140 80 -750 -250
2313 1788 420 440 -250 1250
361 273 60 40 0 -250
1275 989 180 180 -500 -250  6
-3882 -3029 -780 -660 0 250
2573 2010 500 480 500 -500
-4737 -3715 -920 -860 750 0
-4032 -3123 -660 -800 2250 250  8 7
3067 2402 620 620 2750 -500
                3

-2357 -1832 -380 -460 0 -500
325 234 60 -60 -250 -12000  7
-1046 -797 -180 -180 0 -750
-1122 -787 -200 -220 -1250 3250  6
-1411 -1159 -260 -200 1750 -5250    5
-908 -694 -180 -200 0 250
2730 2133 480 520 -750 250
2970 2312 560 580 -250 3000  8
2660 2066 400 580 500 -1500
2410 1868 460 500 750 -1750
2156 1684 400 420 0 250
3364 2625 680 660 1500 500  7
-2087 -1611 -440 -480 0 -250
4285 3325 800 820 750 2500  7
-3160 -2438 -580 -600 250 250
-2575 -2024 -560 -420 -2000 -750    6
5181 4006 960 1000 -1750 250
              8 &

-2362 -1850 -460 -460 -250 0
448 364 -140 200 -500 2000
-1294 -1029 -280 -240 0 1000
-1416 -1104 -300 -200 1500 -7750
-1653 -1236 -300 -460 -500 3000
-703 -558 -120 -80 0 -750
2204 1709 420 420 1000 -750
2715 2125 540 520 -250 -2250
2005 1570 420 300 250 1500
3685 2884 660 680 -1000 0
2134 1638 400 400 0 -500
2491 1935 420 500 -2000 -1000
-2934 -2276 -520 -580 750 -500
4072 3178 800 820 -1750 -2750  6
-2984 -2334 -500 -580 -1500 -500  7
-2563 -1979 -480 -580 750 500
4501 3547 860 800 500 0
                3

-5050 -3911 -960 -960 750 500
-2474 -1894 -360 -440 1000 3250
-3418 -2624 -680 -640 0 500
-3668 -2868 -780 -700 -750 -7000    3
-4050 -3204 -620 -760 -1000 500
-3557 -2759 -720 -740 0 750
144 116 40 20 -750 1000
385 277 60 40 500 1000
-145 -109 -40 -40 -500 1250
6 -10 40 60 1250 250
-783 -590 -180 -180 0 250
835 643 320 80 2000 750
-4891 -3818 -960 -940 -1000 750
1781 1380 320 240 1750 750
-6040 -4695 -1200 -1100 2500 250  8
-5302 -4121 -1020 -940 -750 250  7
2197 1666 460 360 -250 250
              9 &

-1452 -1158 -260 -300 -750 -750
1189 894 300 260 -1750 -500    6
-229 -227 -80 -140 -500 0
-324 -294 40 -220 750 29250    4
-640 -452 -160 -40 1000 -500
-206 -170 0 -20 0 -500
3684 2867 700 720 500 -1000
3967 3111 720 780 -750 -1250
3263 2552 620 640 250 -2750
4090 3211 760 760 -1500 0
2713 2107 560 560 -250 0
3814 2976 620 800 -3250 -500  6
-701 -533 -180 -140 750 -500
4684 3652 840 900 -500 750  7
-2103 -1617 -340 -420 -2250 -250
-1591 -1230 -300 -260 1500 -500
5646 4409 1000 1060 250 -500
                3

-5733 -4450 -1100 -1020 250 1250
-2820 -2188 -540 -440 1500 -8750    5
-4707 -3644 -920 -780 1000 -750
-4494 -3534 -680 -740 500 -25750
-4898 -3850 -980 -980 0 -2250
-4293 -3338 -860 -800 -250 500
-1476 -1140 -280 -280 -500 500
-641 -492 -120 -120 1000 2500
-1139 -914 -180 -280 500 1250
-314 -245 -20 -100 1250 -250
-1407 -1088 -300 -280 750 0
-673 -528 -300 -140 4750 250  7
-6504 -5056 -1080 -1140 750 750
1055 813 220 200 -750 -250
-6826 -5337 -1280 -1300 500 0
-6123 -4775 -1140 -1160 -750 250
1376 1047 220 260 750 250
             50 &

-680 -536 -160 -180 -250 -750
2097 1596 420 280 -750 8750
838 658 160 60 -500 -250
579 584 120 120 -1000 11750
258 210 100 60 0 4750
1028 802 220 180 500 -250
4728 3670 880 880 250 1250
4645 3604 900 920 -1000 -1500
3895 3059 800 760 -750 -250
4662 3613 840 920 -1000 2500
3620 2811 700 640 -750 0
5199 4055 1100 940 -3500 750
-433 -352 -20 -20 -2250 -500
5820 4535 1060 1080 250 -750
-1418 -1058 -320 -280 0 1000  7
-396 -302 -40 -100 0 500
6638 5204 1240 1240 -1250 0
                3

-4025 -3128 -780 -720 500 -750
-866 -622 -140 -140 250 750
-2664 -2069 -480 -420 -250 1750
-3013 -2482 -500 -440 -750 -5250    5
-3057 -2362 -600 -540 -2000 -4000
-3005 -2346 -580 -580 -250 -250
1108 881 240 240 0 -2250
1310 1034 240 220 750 -2000
740 570 140 200 250 250
1280 1035 240 260 750 -5000
281 217 0 60 0 0
1397 1080 260 340 500 -2000
-4084 -3143 -860 -800 1750 -500
2606 2022 520 420 1000 750
-4689 -3690 -880 -860 1000 -1000
-4488 -3507 -820 -780 -250 -250
3015 2331 620 580 0 -250  6
              1 &

-2412 -1886 -460 -440 -500 1250
229 188 -20 -40 0 -5500
-809 -637 -100 -200 1000 -2750
-1490 -1112 -280 -340 1000 -5750    4
-1551 -1225 -340 -400 4000 1250
-1244 -967 -180 -200 0 500
2398 1846 440 440 0 750
2807 2174 540 440 -250 3000
2308 1801 420 380 -250 0
3971 3052 800 720 0 6500
1628 1273 380 340 750 250
3333 2575 600 480 1750 2250
-2783 -2221 -580 -660 -1500 500
4181 3238 700 800 -2000 -500  6
-3170 -2448 -560 -520 -1250 0
-2452 -1890 -420 -420 500 -1250
4809 3741 900 880 1500 250
                3

-2130 -1663 -400 -400 750 -250
825 595 140 280 0 5000
-1243 -986 -220 -160 -1250 1750
-208 -137 -100 140 -1500 11500
-1185 -955 -260 -140 -4000 750
-244 -198 -80 -40 0 -250
2658 2088 520 500 0 750
3099 2431 580 700 250 -250
2323 1811 420 460 750 1250
2546 2003 480 500 -500 -4500
1934 1488 320 360 -750 -500
3181 2495 660 720 -2750 -1750
-1171 -861 -320 -200 2250 500
4541 3535 920 880 3000 -250  7
-3069 -2406 -620 -620 500 250
-1822 -1421 -340 -380 0 1750
5080 3934 1020 980 -500 250  7
              2 &

-2942 -2275 -580 -600 -1000 -1250
-55 -57 -80 20 -250 -1750
-1264 -965 -200 -200 750 1000
-1801 -1383 -480 -280 1500 -6500
-1937 -1437 -380 -400 2000 -250
-1788 -1383 -300 -340 0 0
1881 1458 380 380 250 -1000
2530 1957 520 460 -750 -1250
1651 1284 320 360 -750 -2750
3338 2590 660 600 0 0
1272 1007 280 200 250 250
2635 2055 380 500 2250 500
-3884 -3032 -700 -660 -1250 -1250
3701 2877 720 660 -3000 1250
-3916 -3009 -720 -760 500 -250
-3482 -2708 -660 -640 -750 -750
4251 3312 740 760 -1750 -250  6
                3

-4759 -3734 -840 -900 750 2250
-1652 -1213 -240 -300 500 -2250
-3285 -2558 -620 -640 -750 -1500
-3887 -3087 -700 -940 1500 10750    5
-3834 -3059 -780 -680 250 -4000
-3541 -2760 -680 -700 0 0
91 71 -20 -20 -750 1250
381 304 40 60 750 1250
139 94 40 60 -250 2250
333 265 20 60 500 1250
-740 -584 -120 -120 0 0
989 734 240 100 0 500
-4450 -3467 -620 -940 250 1000
1752 1365 360 320 1750 -1250
-5376 -4208 -960 -960 -250 250  8 6
-4377 -3407 -840 -880 250 -250
2633 2060 520 500 2000 0  7
              3 &

-1292 -998 -220 -260 -250 -2000
1511 1111 320 120 -500 2250
173 114 -60 0 750 -1250
-90 -35 20 0 -2250 -22250    4
-205 -118 -40 40 -750 7500
565 436 100 140 0 0
3816 2980 700 720 750 -1500
4107 3197 820 820 -250 -1500
3555 2782 620 680 750 -1250
4119 3220 800 840 -250 750
2663 2078 440 460 0 -250
4189 3287 820 720 -1250 0
-1064 -822 -200 -140 -1000 250
5454 4233 980 1020 -500 1250
-2053 -1579 -420 -440 -1000 500  7
-1282 -989 -280 -220 1000 250
5764 4492 1120 1080 -1000 -250
                3

-4347 -3370 -900 -840 -250 1000
-1211 -909 -300 -340 250 500
-2832 -2194 -560 -520 0 3000
-3090 -2406 -540 -660 -500 24250    5
-3483 -2728 -560 -600 250 -5250
-3543 -2762 -660 -720 0 0
265 203 60 80 -250 1250
817 630 160 140 0 1750
-80 -68 -40 -20 -250 1000  7
1350 1036 200 200 -250 -1500
-301 -242 0 -20 0 750
1295 1023 260 340 -250 -250
-4916 -3826 -980 -860 1000 -1000
2011 1590 400 440 0 -1500
-5356 -4180 -960 -940 1250 -750  8
-4604 -3602 -900 -860 -1000 -250
2903 2225 480 520 1000 500
              4 &

-2027 -1623 -380 -360 500 -250
869 658 260 340 -250 -3250  6
-938 -716 -160 -160 -1000 -500
-755 -588 -180 -20 2000 -19250
-940 -752 -240 -300 -250 2500    6
-869 -674 -240 -140 0 -250
3035 2365 600 560 0 -1250
3441 2697 640 660 250 -2250
2395 1859 500 460 0 -500
3986 3129 820 860 500 250
1786 1391 280 320 0 -1000
3849 2953 680 680 1500 -500
-1350 -1083 -280 -260 -1000 750
4838 3751 800 980 -500 1500
-2646 -2055 -480 -540 -500 750
-2005 -1537 -400 -420 -750 500
5220 4074 1000 1020 -1500 -500
